<?xml version="1.0" encoding="UTF-8" standalone="yes"?><gpx version="1.1" creator="FilBleu Scrapper"><metadata>Filbleu ligne TTR_Nav113</metadata><trk><trkseg><trkpt lat="47.390862" lon="0.69358"><ele>0.0</ele><name>Gare Vinci (Tours)</name><time>0</time></trkpt><trkpt lat="47.389651" lon="0.689418"><ele>0.0</ele><name>Jean Jaurès (Tours)</name><time>0</time></trkpt><trkpt lat="47.386473" lon="0.691159"><ele>0.0</ele><name>Salengro (Tours)</name><time>0</time></trkpt><trkpt lat="47.38404" lon="0.692161"><ele>0.0</ele><name>Boisdenier (Tours)</name><time>0</time></trkpt><trkpt lat="47.380079" lon="0.694574"><ele>0.0</ele><name>Liberté (Tours)</name><time>0</time></trkpt><trkpt lat="47.377026" lon="0.695013"><ele>0.0</ele><name>Charcot (Tours)</name><time>0</time></trkpt><trkpt lat="47.373732" lon="0.696174"><ele>0.0</ele><name>Verdun (Tours)</name><time>0</time></trkpt><trkpt lat="47.367401" lon="0.698911"><ele>0.0</ele><name>Lac (Tours)</name><time>0</time></trkpt><trkpt lat="47.363566" lon="0.700697"><ele>0.0</ele><name>Parc Nord (Tours)</name><time>0</time></trkpt><trkpt lat="47.360641" lon="0.702548"><ele>0.0</ele><name>Lycée Grandmont (Tours)</name><time>0</time></trkpt><trkpt lat="47.356953" lon="0.703256"><ele>0.0</ele><name>Fac Grandmont (Tours)</name><time>0</time></trkpt><trkpt lat="47.355811" lon="0.702033"><ele>0.0</ele><name>Arsonval (Tours)</name><time>0</time></trkpt><trkpt lat="47.337472" lon="0.700583"><ele>0.0</ele><name>Maupas (Chambray-lès-Tours)</name><time>0</time></trkpt><trkpt lat="47.336716" lon="0.694823"><ele>0.0</ele><name>Thibaudière (Chambray-lès-Tours)</name><time>0</time></trkpt><trkpt lat="47.335747" lon="0.691822"><ele>0.0</ele><name>Santé Vinci (Chambray-lès-Tours)</name><time>0</time></trkpt></trkseg></trk><trk><trkseg><trkpt lat="47.335747" lon="0.691822"><ele>0.0</ele><name>Santé Vinci (Chambray-lès-Tours)</name><time>0</time></trkpt><trkpt lat="47.336716" lon="0.694823"><ele>0.0</ele><name>Thibaudière (Chambray-lès-Tours)</name><time>0</time></trkpt><trkpt lat="47.337472" lon="0.700583"><ele>0.0</ele><name>Maupas (Chambray-lès-Tours)</name><time>0</time></trkpt><trkpt lat="47.355811" lon="0.702033"><ele>0.0</ele><name>Arsonval (Tours)</name><time>0</time></trkpt><trkpt lat="47.356953" lon="0.703256"><ele>0.0</ele><name>Fac Grandmont (Tours)</name><time>0</time></trkpt><trkpt lat="47.360641" lon="0.702548"><ele>0.0</ele><name>Lycée Grandmont (Tours)</name><time>0</time></trkpt><trkpt lat="47.360896" lon="0.704685"><ele>0.0</ele><name>St Jean (Tours)</name><time>0</time></trkpt><trkpt lat="47.363853" lon="0.702515"><ele>0.0</ele><name>Beethoven (Tours)</name><time>0</time></trkpt><trkpt lat="47.367401" lon="0.698911"><ele>0.0</ele><name>Lac (Tours)</name><time>0</time></trkpt><trkpt lat="47.373732" lon="0.696174"><ele>0.0</ele><name>Verdun (Tours)</name><time>0</time></trkpt><trkpt lat="47.377026" lon="0.695013"><ele>0.0</ele><name>Charcot (Tours)</name><time>0</time></trkpt><trkpt lat="47.380079" lon="0.694574"><ele>0.0</ele><name>Liberté (Tours)</name><time>0</time></trkpt><trkpt lat="47.38404" lon="0.692161"><ele>0.0</ele><name>Boisdenier (Tours)</name><time>0</time></trkpt><trkpt lat="47.386473" lon="0.691159"><ele>0.0</ele><name>Salengro (Tours)</name><time>0</time></trkpt><trkpt lat="47.389651" lon="0.689418"><ele>0.0</ele><name>Jean Jaurès (Tours)</name><time>0</time></trkpt><trkpt lat="47.390862" lon="0.69358"><ele>0.0</ele><name>Gare Vinci (Tours)</name><time>0</time></trkpt></trkseg></trk></gpx>