<?xml version="1.0" encoding="UTF-8" standalone="yes"?><gpx version="1.1" creator="FilBleu Scrapper"><metadata>Filbleu ligne 22</metadata><trk><trkseg><trkpt lat="47.409246" lon="0.66069"><ele>0.0</ele><name>Blot</name><time>0</time></trkpt><trkpt lat="47.41113" lon="0.65967"><ele>0.0</ele><name>Rimoneaux</name><time>0</time></trkpt><trkpt lat="47.412356" lon="0.659201"><ele>0.0</ele><name>Sibotière</name><time>0</time></trkpt><trkpt lat="47.414911" lon="0.657689"><ele>0.0</ele><name>Bechellerie</name><time>0</time></trkpt><trkpt lat="47.416274" lon="0.656996"><ele>0.0</ele><name>Pot de Fer</name><time>0</time></trkpt><trkpt lat="47.415535" lon="0.653255"><ele>0.0</ele><name>Clos Besnard</name><time>0</time></trkpt><trkpt lat="47.413766" lon="0.648811"><ele>0.0</ele><name>Rembrandt</name><time>0</time></trkpt><trkpt lat="47.413212" lon="0.646628"><ele>0.0</ele><name>Haut-bourg</name><time>0</time></trkpt><trkpt lat="47.412009" lon="0.647727"><ele>0.0</ele><name>Manet</name><time>0</time></trkpt><trkpt lat="47.410101" lon="0.649238"><ele>0.0</ele><name>Guérin</name><time>0</time></trkpt><trkpt lat="47.407752" lon="0.648842"><ele>0.0</ele><name>Allende</name><time>0</time></trkpt><trkpt lat="47.407226" lon="0.64921"><ele>0.0</ele><name>St Cyr Croix Chidaine</name><time>0</time></trkpt><trkpt lat="47.406905" lon="0.66244"><ele>0.0</ele><name>Casse Droit</name><time>0</time></trkpt><trkpt lat="47.403619" lon="0.663848"><ele>0.0</ele><name>Foch</name><time>0</time></trkpt><trkpt lat="47.402648" lon="0.661083"><ele>0.0</ele><name>Trois Tonneaux</name><time>0</time></trkpt><trkpt lat="47.399696" lon="0.662249"><ele>0.0</ele><name>Homme Noir</name><time>0</time></trkpt><trkpt lat="47.400103" lon="0.666755"><ele>0.0</ele><name>St Cyr Mairie</name><time>0</time></trkpt><trkpt lat="47.402032" lon="0.667973"><ele>0.0</ele><name>Jaunay</name><time>0</time></trkpt><trkpt lat="47.404772" lon="0.669988"><ele>0.0</ele><name>Montjoie</name><time>0</time></trkpt><trkpt lat="47.407576" lon="0.670563"><ele>0.0</ele><name>Fosses Boissées</name><time>0</time></trkpt><trkpt lat="47.407861" lon="0.67504"><ele>0.0</ele><name>Mailloux</name><time>0</time></trkpt><trkpt lat="47.40769" lon="0.676662"><ele>0.0</ele><name>Calmette</name><time>0</time></trkpt><trkpt lat="47.406781" lon="0.67567"><ele>0.0</ele><name>Mésangerie</name><time>0</time></trkpt><trkpt lat="47.403049" lon="0.677045"><ele>0.0</ele><name>Cèdres</name><time>0</time></trkpt><trkpt lat="47.400967" lon="0.678647"><ele>0.0</ele><name>Lebrun</name><time>0</time></trkpt><trkpt lat="47.400556" lon="0.678282"><ele>0.0</ele><name>Portillon</name><time>0</time></trkpt><trkpt lat="47.394687" lon="0.677821"><ele>0.0</ele><name>Tanneurs</name><time>0</time></trkpt><trkpt lat="47.392553" lon="0.679472"><ele>0.0</ele><name>Grand Marché</name><time>0</time></trkpt><trkpt lat="47.391089" lon="0.681577"><ele>0.0</ele><name>Halles</name><time>0</time></trkpt><trkpt lat="47.389803" lon="0.683797"><ele>0.0</ele><name>Béranger</name><time>0</time></trkpt><trkpt lat="47.389854" lon="0.688495"><ele>0.0</ele><name>Jean Jaurès</name><time>0</time></trkpt></trkseg></trk></gpx>