<?xml version="1.0" encoding="UTF-8" standalone="yes"?><gpx version="1.1" creator="FilBleu Scrapper"><metadata>Filbleu ligne TTR_Nav90</metadata><trk><trkseg><trkpt lat="47.386712" lon="0.723501"><ele>0.0</ele><name>St Pierre Gare (Saint-Pierre-des-Corps)</name><time>0</time></trkpt><trkpt lat="47.387947" lon="0.721092"><ele>0.0</ele><name>Stalingrad (Saint-Pierre-des-Corps)</name><time>0</time></trkpt><trkpt lat="47.390723" lon="0.720134"><ele>0.0</ele><name>St Pierre Centre (Saint-Pierre-des-Corps)</name><time>0</time></trkpt><trkpt lat="47.393673" lon="0.716812"><ele>0.0</ele><name>Cornouillers (Saint-Pierre-des-Corps)</name><time>0</time></trkpt><trkpt lat="47.394869" lon="0.719386"><ele>0.0</ele><name>La Madeleine (Saint-Pierre-des-Corps)</name><time>0</time></trkpt><trkpt lat="47.394953" lon="0.722165"><ele>0.0</ele><name>Val Fleuri (Saint-Pierre-des-Corps)</name><time>0</time></trkpt><trkpt lat="47.395044" lon="0.724839"><ele>0.0</ele><name>Jacques Decour (Saint-Pierre-des-Corps)</name><time>0</time></trkpt><trkpt lat="47.393679" lon="0.726258"><ele>0.0</ele><name>Grand Mail (Saint-Pierre-des-Corps)</name><time>0</time></trkpt><trkpt lat="47.390205" lon="0.72688"><ele>0.0</ele><name>Jean Moulin (Saint-Pierre-des-Corps)</name><time>0</time></trkpt><trkpt lat="47.388255" lon="0.72768"><ele>0.0</ele><name>Anguille (Saint-Pierre-des-Corps)</name><time>0</time></trkpt><trkpt lat="47.382904" lon="0.7311"><ele>0.0</ele><name>Pichotière (Saint-Pierre-des-Corps)</name><time>0</time></trkpt><trkpt lat="47.376637" lon="0.737236"><ele>0.0</ele><name>Peupleraie (Tours)</name><time>0</time></trkpt><trkpt lat="47.37721" lon="0.733099"><ele>0.0</ele><name>Becquerel (Saint-Pierre-des-Corps)</name><time>0</time></trkpt></trkseg></trk><trk><trkseg><trkpt lat="47.37721" lon="0.733099"><ele>0.0</ele><name>Becquerel (Saint-Pierre-des-Corps)</name><time>0</time></trkpt><trkpt lat="47.376637" lon="0.737236"><ele>0.0</ele><name>Peupleraie (Tours)</name><time>0</time></trkpt><trkpt lat="47.382904" lon="0.7311"><ele>0.0</ele><name>Pichotière (Saint-Pierre-des-Corps)</name><time>0</time></trkpt><trkpt lat="47.388255" lon="0.72768"><ele>0.0</ele><name>Anguille (Saint-Pierre-des-Corps)</name><time>0</time></trkpt><trkpt lat="47.390205" lon="0.72688"><ele>0.0</ele><name>Jean Moulin (Saint-Pierre-des-Corps)</name><time>0</time></trkpt><trkpt lat="47.393679" lon="0.726258"><ele>0.0</ele><name>Grand Mail (Saint-Pierre-des-Corps)</name><time>0</time></trkpt><trkpt lat="47.395044" lon="0.724839"><ele>0.0</ele><name>Jacques Decour (Saint-Pierre-des-Corps)</name><time>0</time></trkpt><trkpt lat="47.394953" lon="0.722165"><ele>0.0</ele><name>Val Fleuri (Saint-Pierre-des-Corps)</name><time>0</time></trkpt><trkpt lat="47.394869" lon="0.719386"><ele>0.0</ele><name>La Madeleine (Saint-Pierre-des-Corps)</name><time>0</time></trkpt><trkpt lat="47.393673" lon="0.716812"><ele>0.0</ele><name>Cornouillers (Saint-Pierre-des-Corps)</name><time>0</time></trkpt><trkpt lat="47.390723" lon="0.720134"><ele>0.0</ele><name>St Pierre Centre (Saint-Pierre-des-Corps)</name><time>0</time></trkpt><trkpt lat="47.387947" lon="0.721092"><ele>0.0</ele><name>Stalingrad (Saint-Pierre-des-Corps)</name><time>0</time></trkpt><trkpt lat="47.386712" lon="0.723501"><ele>0.0</ele><name>St Pierre Gare (Saint-Pierre-des-Corps)</name><time>0</time></trkpt></trkseg></trk></gpx>