<?xml version="1.0" encoding="UTF-8" standalone="yes"?><gpx version="1.1" creator="FilBleu Scrapper"><metadata>Filbleu ligne TTR_Nav64</metadata><trk><trkseg><trkpt lat="47.40017" lon="0.667521"><ele>0.0</ele><name>St Cyr Mairie (Saint-Cyr-sur-Loire)</name><time>0</time></trkpt><trkpt lat="47.402104" lon="0.668746"><ele>0.0</ele><name>Jaunay (Saint-Cyr-sur-Loire)</name><time>0</time></trkpt><trkpt lat="47.404972" lon="0.670485"><ele>0.0</ele><name>Montjoie (Saint-Cyr-sur-Loire)</name><time>0</time></trkpt><trkpt lat="47.407524" lon="0.670895"><ele>0.0</ele><name>Fosses Boissées (Saint-Cyr-sur-Loire)</name><time>0</time></trkpt><trkpt lat="47.407964" lon="0.675812"><ele>0.0</ele><name>Mailloux (Saint-Cyr-sur-Loire)</name><time>0</time></trkpt><trkpt lat="47.408552" lon="0.677927"><ele>0.0</ele><name>Bocage (Saint-Cyr-sur-Loire)</name><time>0</time></trkpt><trkpt lat="47.40899" lon="0.681505"><ele>0.0</ele><name>Tranchée (Tours)</name><time>0</time></trkpt><trkpt lat="47.410742" lon="0.67819"><ele>0.0</ele><name>Portail d'Ormeau (Saint-Cyr-sur-Loire)</name><time>0</time></trkpt><trkpt lat="47.412042" lon="0.67538"><ele>0.0</ele><name>Engerand (Saint-Cyr-sur-Loire)</name><time>0</time></trkpt><trkpt lat="47.413395" lon="0.672448"><ele>0.0</ele><name>Roux (Saint-Cyr-sur-Loire)</name><time>0</time></trkpt><trkpt lat="47.415625" lon="0.669237"><ele>0.0</ele><name>Guynemer (Saint-Cyr-sur-Loire)</name><time>0</time></trkpt><trkpt lat="47.418652" lon="0.665193"><ele>0.0</ele><name>Lande (Saint-Cyr-sur-Loire)</name><time>0</time></trkpt><trkpt lat="47.419977" lon="0.664714"><ele>0.0</ele><name>Charentais (Saint-Cyr-sur-Loire)</name><time>0</time></trkpt><trkpt lat="47.423277" lon="0.667102"><ele>0.0</ele><name>Condorcet (Saint-Cyr-sur-Loire)</name><time>0</time></trkpt><trkpt lat="47.423234" lon="0.669066"><ele>0.0</ele><name>Ampère (Saint-Cyr-sur-Loire)</name><time>0</time></trkpt><trkpt lat="47.42402" lon="0.674914"><ele>0.0</ele><name>Augereau (Tours)</name><time>0</time></trkpt><trkpt lat="47.422506" lon="0.676645"><ele>0.0</ele><name>LP Eiffel (Tours)</name><time>0</time></trkpt><trkpt lat="47.422356" lon="0.681276"><ele>0.0</ele><name>Europe (Tours)</name><time>0</time></trkpt><trkpt lat="47.422259" lon="0.683903"><ele>0.0</ele><name>Beffroi (Tours)</name><time>0</time></trkpt><trkpt lat="47.425506" lon="0.683856"><ele>0.0</ele><name>Charleroi (Tours)</name><time>0</time></trkpt><trkpt lat="47.426331" lon="0.686163"><ele>0.0</ele><name>Loing (Tours)</name><time>0</time></trkpt><trkpt lat="47.427378" lon="0.691447"><ele>0.0</ele><name>LP Clouet (Tours)</name><time>0</time></trkpt><trkpt lat="47.427597" lon="0.698003"><ele>0.0</ele><name>Petite Arche (Tours)</name><time>0</time></trkpt><trkpt lat="47.424826" lon="0.698035"><ele>0.0</ele><name>Luxembourg (Tours)</name><time>0</time></trkpt><trkpt lat="47.423787" lon="0.698345"><ele>0.0</ele><name>Marne (Tours)</name><time>0</time></trkpt><trkpt lat="47.422233" lon="0.69724"><ele>0.0</ele><name>Niepce (Tours)</name><time>0</time></trkpt><trkpt lat="47.419681" lon="0.694309"><ele>0.0</ele><name>Daguerre (Tours)</name><time>0</time></trkpt><trkpt lat="47.418697" lon="0.69597"><ele>0.0</ele><name>Mayer (Tours)</name><time>0</time></trkpt><trkpt lat="47.418893" lon="0.699662"><ele>0.0</ele><name>Pas Notre Dame (Tours)</name><time>0</time></trkpt><trkpt lat="47.41896" lon="0.704406"><ele>0.0</ele><name>Collège Ronsard (Tours)</name><time>0</time></trkpt><trkpt lat="47.418964" lon="0.707242"><ele>0.0</ele><name>Chambrerie (Tours)</name><time>0</time></trkpt><trkpt lat="47.418679" lon="0.71254"><ele>0.0</ele><name>Vieux Noyer (Tours)</name><time>0</time></trkpt><trkpt lat="47.415981" lon="0.712038"><ele>0.0</ele><name>Giraudoux (Tours)</name><time>0</time></trkpt><trkpt lat="47.415328" lon="0.709712"><ele>0.0</ele><name>Carcassonne (Tours)</name><time>0</time></trkpt><trkpt lat="47.412203" lon="0.708827"><ele>0.0</ele><name>Tastes (Tours)</name><time>0</time></trkpt><trkpt lat="47.410464" lon="0.707396"><ele>0.0</ele><name>Lurçat (Tours)</name><time>0</time></trkpt><trkpt lat="47.409106" lon="0.708723"><ele>0.0</ele><name>Belle Isle (Tours)</name><time>0</time></trkpt><trkpt lat="47.408672" lon="0.711731"><ele>0.0</ele><name>Monsoudun (Tours)</name><time>0</time></trkpt><trkpt lat="47.409586" lon="0.714062"><ele>0.0</ele><name>St Libert (Tours)</name><time>0</time></trkpt><trkpt lat="47.407908" lon="0.71569"><ele>0.0</ele><name>La Borde (Tours)</name><time>0</time></trkpt><trkpt lat="47.406223" lon="0.712919"><ele>0.0</ele><name>Wedells (Tours)</name><time>0</time></trkpt><trkpt lat="47.403919" lon="0.711598"><ele>0.0</ele><name>Place Rousseau (Tours)</name><time>0</time></trkpt><trkpt lat="47.403109" lon="0.705818"><ele>0.0</ele><name>St Joseph (Tours)</name><time>0</time></trkpt><trkpt lat="47.403331" lon="0.703068"><ele>0.0</ele><name>Golf (Tours)</name><time>0</time></trkpt><trkpt lat="47.397635" lon="0.698552"><ele>0.0</ele><name>Quai Malraux (Tours)</name><time>0</time></trkpt><trkpt lat="47.397575" lon="0.693652"><ele>0.0</ele><name>Château de Tours (Tours)</name><time>0</time></trkpt><trkpt lat="47.397371" lon="0.690094"><ele>0.0</ele><name>Voltaire (Tours)</name><time>0</time></trkpt><trkpt lat="47.396495" lon="0.686689"><ele>0.0</ele><name>Anatole France (Tours)</name><time>0</time></trkpt></trkseg></trk><trk><trkseg><trkpt lat="47.396495" lon="0.686689"><ele>0.0</ele><name>Anatole France (Tours)</name><time>0</time></trkpt><trkpt lat="47.397371" lon="0.690094"><ele>0.0</ele><name>Voltaire (Tours)</name><time>0</time></trkpt><trkpt lat="47.397575" lon="0.693652"><ele>0.0</ele><name>Château de Tours (Tours)</name><time>0</time></trkpt><trkpt lat="47.397635" lon="0.698552"><ele>0.0</ele><name>Quai Malraux (Tours)</name><time>0</time></trkpt><trkpt lat="47.403109" lon="0.705818"><ele>0.0</ele><name>St Joseph (Tours)</name><time>0</time></trkpt><trkpt lat="47.403919" lon="0.711598"><ele>0.0</ele><name>Place Rousseau (Tours)</name><time>0</time></trkpt><trkpt lat="47.406223" lon="0.712919"><ele>0.0</ele><name>Wedells (Tours)</name><time>0</time></trkpt><trkpt lat="47.407908" lon="0.71569"><ele>0.0</ele><name>La Borde (Tours)</name><time>0</time></trkpt><trkpt lat="47.409586" lon="0.714062"><ele>0.0</ele><name>St Libert (Tours)</name><time>0</time></trkpt><trkpt lat="47.408672" lon="0.711731"><ele>0.0</ele><name>Monsoudun (Tours)</name><time>0</time></trkpt><trkpt lat="47.409106" lon="0.708723"><ele>0.0</ele><name>Belle Isle (Tours)</name><time>0</time></trkpt><trkpt lat="47.410464" lon="0.707396"><ele>0.0</ele><name>Lurçat (Tours)</name><time>0</time></trkpt><trkpt lat="47.412203" lon="0.708827"><ele>0.0</ele><name>Tastes (Tours)</name><time>0</time></trkpt><trkpt lat="47.415328" lon="0.709712"><ele>0.0</ele><name>Carcassonne (Tours)</name><time>0</time></trkpt><trkpt lat="47.415981" lon="0.712038"><ele>0.0</ele><name>Giraudoux (Tours)</name><time>0</time></trkpt><trkpt lat="47.418679" lon="0.71254"><ele>0.0</ele><name>Vieux Noyer (Tours)</name><time>0</time></trkpt><trkpt lat="47.418964" lon="0.707242"><ele>0.0</ele><name>Chambrerie (Tours)</name><time>0</time></trkpt><trkpt lat="47.41896" lon="0.704406"><ele>0.0</ele><name>Collège Ronsard (Tours)</name><time>0</time></trkpt><trkpt lat="47.418893" lon="0.699662"><ele>0.0</ele><name>Pas Notre Dame (Tours)</name><time>0</time></trkpt><trkpt lat="47.418697" lon="0.69597"><ele>0.0</ele><name>Mayer (Tours)</name><time>0</time></trkpt><trkpt lat="47.419681" lon="0.694309"><ele>0.0</ele><name>Daguerre (Tours)</name><time>0</time></trkpt><trkpt lat="47.422233" lon="0.69724"><ele>0.0</ele><name>Niepce (Tours)</name><time>0</time></trkpt><trkpt lat="47.424826" lon="0.698035"><ele>0.0</ele><name>Luxembourg (Tours)</name><time>0</time></trkpt><trkpt lat="47.427597" lon="0.698003"><ele>0.0</ele><name>Petite Arche (Tours)</name><time>0</time></trkpt><trkpt lat="47.427378" lon="0.691447"><ele>0.0</ele><name>LP Clouet (Tours)</name><time>0</time></trkpt><trkpt lat="47.426331" lon="0.686163"><ele>0.0</ele><name>Loing (Tours)</name><time>0</time></trkpt><trkpt lat="47.425506" lon="0.683856"><ele>0.0</ele><name>Charleroi (Tours)</name><time>0</time></trkpt><trkpt lat="47.422259" lon="0.683903"><ele>0.0</ele><name>Beffroi (Tours)</name><time>0</time></trkpt><trkpt lat="47.422356" lon="0.681276"><ele>0.0</ele><name>Europe (Tours)</name><time>0</time></trkpt><trkpt lat="47.422506" lon="0.676645"><ele>0.0</ele><name>LP Eiffel (Tours)</name><time>0</time></trkpt><trkpt lat="47.42402" lon="0.674914"><ele>0.0</ele><name>Augereau (Tours)</name><time>0</time></trkpt><trkpt lat="47.423234" lon="0.669066"><ele>0.0</ele><name>Ampère (Saint-Cyr-sur-Loire)</name><time>0</time></trkpt><trkpt lat="47.423277" lon="0.667102"><ele>0.0</ele><name>Condorcet (Saint-Cyr-sur-Loire)</name><time>0</time></trkpt><trkpt lat="47.419977" lon="0.664714"><ele>0.0</ele><name>Charentais (Saint-Cyr-sur-Loire)</name><time>0</time></trkpt><trkpt lat="47.418652" lon="0.665193"><ele>0.0</ele><name>Lande (Saint-Cyr-sur-Loire)</name><time>0</time></trkpt><trkpt lat="47.415625" lon="0.669237"><ele>0.0</ele><name>Guynemer (Saint-Cyr-sur-Loire)</name><time>0</time></trkpt><trkpt lat="47.413395" lon="0.672448"><ele>0.0</ele><name>Roux (Saint-Cyr-sur-Loire)</name><time>0</time></trkpt><trkpt lat="47.412042" lon="0.67538"><ele>0.0</ele><name>Engerand (Saint-Cyr-sur-Loire)</name><time>0</time></trkpt><trkpt lat="47.410742" lon="0.67819"><ele>0.0</ele><name>Portail d'Ormeau (Saint-Cyr-sur-Loire)</name><time>0</time></trkpt><trkpt lat="47.40899" lon="0.681505"><ele>0.0</ele><name>Tranchée (Tours)</name><time>0</time></trkpt><trkpt lat="47.407854" lon="0.680069"><ele>0.0</ele><name>Scotto (Saint-Cyr-sur-Loire)</name><time>0</time></trkpt><trkpt lat="47.408552" lon="0.677927"><ele>0.0</ele><name>Bocage (Saint-Cyr-sur-Loire)</name><time>0</time></trkpt><trkpt lat="47.407964" lon="0.675812"><ele>0.0</ele><name>Mailloux (Saint-Cyr-sur-Loire)</name><time>0</time></trkpt><trkpt lat="47.407524" lon="0.670895"><ele>0.0</ele><name>Fosses Boissées (Saint-Cyr-sur-Loire)</name><time>0</time></trkpt><trkpt lat="47.404972" lon="0.670485"><ele>0.0</ele><name>Montjoie (Saint-Cyr-sur-Loire)</name><time>0</time></trkpt><trkpt lat="47.402104" lon="0.668746"><ele>0.0</ele><name>Jaunay (Saint-Cyr-sur-Loire)</name><time>0</time></trkpt><trkpt lat="47.40017" lon="0.667521"><ele>0.0</ele><name>St Cyr Mairie (Saint-Cyr-sur-Loire)</name><time>0</time></trkpt></trkseg></trk></gpx>