<?xml version="1.0" encoding="UTF-8" standalone="yes"?><gpx version="1.1" creator="FilBleu Scrapper"><metadata>Filbleu ligne TTRNav62</metadata><trk><trkseg><trkpt lat="47.396983" lon="0.740259"><ele>0.0</ele><name>Justices (Saint-Pierre-des-Corps)</name><time>0</time></trkpt><trkpt lat="47.394963" lon="0.741869"><ele>0.0</ele><name>LP Nadaud (Saint-Pierre-des-Corps)</name><time>0</time></trkpt><trkpt lat="47.393642" lon="0.738358"><ele>0.0</ele><name>Lénine (Saint-Pierre-des-Corps)</name><time>0</time></trkpt><trkpt lat="47.392327" lon="0.737649"><ele>0.0</ele><name>Stade (Saint-Pierre-des-Corps)</name><time>0</time></trkpt><trkpt lat="47.391864" lon="0.733721"><ele>0.0</ele><name>Déportés (Saint-Pierre-des-Corps)</name><time>0</time></trkpt><trkpt lat="47.390932" lon="0.72947"><ele>0.0</ele><name>Viala (Saint-Pierre-des-Corps)</name><time>0</time></trkpt><trkpt lat="47.390141" lon="0.726119"><ele>0.0</ele><name>Jean Moulin (Saint-Pierre-des-Corps)</name><time>0</time></trkpt><trkpt lat="47.386601" lon="0.722734"><ele>0.0</ele><name>St Pierre Gare (Saint-Pierre-des-Corps)</name><time>0</time></trkpt><trkpt lat="47.387881" lon="0.720321"><ele>0.0</ele><name>Stalingrad (Saint-Pierre-des-Corps)</name><time>0</time></trkpt><trkpt lat="47.388357" lon="0.718995"><ele>0.0</ele><name>Estienne d'Orves (Saint-Pierre-des-Corps)</name><time>0</time></trkpt><trkpt lat="47.388205" lon="0.717178"><ele>0.0</ele><name>Ateliers (Saint-Pierre-des-Corps)</name><time>0</time></trkpt><trkpt lat="47.387343" lon="0.714727"><ele>0.0</ele><name>Egalité (Saint-Pierre-des-Corps)</name><time>0</time></trkpt><trkpt lat="47.387357" lon="0.7106"><ele>0.0</ele><name>Semard (Saint-Pierre-des-Corps)</name><time>0</time></trkpt><trkpt lat="47.386535" lon="0.706737"><ele>0.0</ele><name>Pont du Milieu (Tours)</name><time>0</time></trkpt><trkpt lat="47.385767" lon="0.703382"><ele>0.0</ele><name>Deslandes (Tours)</name><time>0</time></trkpt><trkpt lat="47.385256" lon="0.700033"><ele>0.0</ele><name>Docteur Fournier (Tours)</name><time>0</time></trkpt><trkpt lat="47.387846" lon="0.697105"><ele>0.0</ele><name>Champ Girault (Tours)</name><time>0</time></trkpt><trkpt lat="47.389668" lon="0.693575"><ele>0.0</ele><name>gare de Tours (Tours)</name><time>0</time></trkpt><trkpt lat="47.389585" lon="0.688651"><ele>0.0</ele><name>Jean Jaurès (Tours)</name><time>0</time></trkpt><trkpt lat="47.386401" lon="0.690387"><ele>0.0</ele><name>Salengro (Tours)</name><time>0</time></trkpt><trkpt lat="47.383974" lon="0.691398"><ele>0.0</ele><name>Boisdenier (Tours)</name><time>0</time></trkpt><trkpt lat="47.380011" lon="0.693805"><ele>0.0</ele><name>Liberté (Tours)</name><time>0</time></trkpt><trkpt lat="47.37696" lon="0.694244"><ele>0.0</ele><name>Charcot (Tours)</name><time>0</time></trkpt><trkpt lat="47.373666" lon="0.695403"><ele>0.0</ele><name>Verdun (Tours)</name><time>0</time></trkpt><trkpt lat="47.367334" lon="0.698146"><ele>0.0</ele><name>Lac (Tours)</name><time>0</time></trkpt><trkpt lat="47.363781" lon="0.701744"><ele>0.0</ele><name>Beethoven (Tours)</name><time>0</time></trkpt><trkpt lat="47.364315" lon="0.705429"><ele>0.0</ele><name>Ecole Commerce (Tours)</name><time>0</time></trkpt><trkpt lat="47.366027" lon="0.708495"><ele>0.0</ele><name>Mozart (Tours)</name><time>0</time></trkpt><trkpt lat="47.367804" lon="0.70819"><ele>0.0</ele><name>D'Indy (Tours)</name><time>0</time></trkpt><trkpt lat="47.368731" lon="0.711108"><ele>0.0</ele><name>Stendhal (Tours)</name><time>0</time></trkpt><trkpt lat="47.367468" lon="0.713378"><ele>0.0</ele><name>Fontaines (Tours)</name><time>0</time></trkpt><trkpt lat="47.368698" lon="0.71932"><ele>0.0</ele><name>Granges Galand (Saint-Avertin)</name><time>0</time></trkpt><trkpt lat="47.366859" lon="0.720951"><ele>0.0</ele><name>Richemont (Saint-Avertin)</name><time>0</time></trkpt><trkpt lat="47.368018" lon="0.727961"><ele>0.0</ele><name>L'Atrium (Saint-Avertin)</name><time>0</time></trkpt><trkpt lat="47.368269" lon="0.730781"><ele>0.0</ele><name>Paul Doumer (Saint-Avertin)</name><time>0</time></trkpt></trkseg></trk></gpx>