<?xml version="1.0" encoding="UTF-8" standalone="yes"?><gpx version="1.1" creator="FilBleu Scrapper"><metadata>Filbleu ligne TTR_Nav62</metadata><trk><trkseg><trkpt lat="47.39705" lon="0.741022"><ele>0.0</ele><name>Justices (Saint-Pierre-des-Corps)</name><time>0</time></trkpt><trkpt lat="47.39503" lon="0.742633"><ele>0.0</ele><name>LP Nadaud (Saint-Pierre-des-Corps)</name><time>0</time></trkpt><trkpt lat="47.393713" lon="0.739122"><ele>0.0</ele><name>Lénine (Saint-Pierre-des-Corps)</name><time>0</time></trkpt><trkpt lat="47.392399" lon="0.738419"><ele>0.0</ele><name>Stade (Saint-Pierre-des-Corps)</name><time>0</time></trkpt><trkpt lat="47.39193" lon="0.734485"><ele>0.0</ele><name>Déportés (Saint-Pierre-des-Corps)</name><time>0</time></trkpt><trkpt lat="47.390999" lon="0.730234"><ele>0.0</ele><name>Viala (Saint-Pierre-des-Corps)</name><time>0</time></trkpt><trkpt lat="47.390205" lon="0.72688"><ele>0.0</ele><name>Jean Moulin (Saint-Pierre-des-Corps)</name><time>0</time></trkpt><trkpt lat="47.38811" lon="0.727618"><ele>0.0</ele><name>Balzac (Saint-Pierre-des-Corps)</name><time>0</time></trkpt><trkpt lat="47.386712" lon="0.723501"><ele>0.0</ele><name>St Pierre Gare (Saint-Pierre-des-Corps)</name><time>0</time></trkpt><trkpt lat="47.387947" lon="0.721092"><ele>0.0</ele><name>Stalingrad (Saint-Pierre-des-Corps)</name><time>0</time></trkpt><trkpt lat="47.388424" lon="0.719766"><ele>0.0</ele><name>Estienne d'Orves (Saint-Pierre-des-Corps)</name><time>0</time></trkpt><trkpt lat="47.388272" lon="0.717943"><ele>0.0</ele><name>Ateliers (Saint-Pierre-des-Corps)</name><time>0</time></trkpt><trkpt lat="47.38741" lon="0.715492"><ele>0.0</ele><name>Egalité (Saint-Pierre-des-Corps)</name><time>0</time></trkpt><trkpt lat="47.387424" lon="0.711371"><ele>0.0</ele><name>Semard (Saint-Pierre-des-Corps)</name><time>0</time></trkpt><trkpt lat="47.386605" lon="0.707502"><ele>0.0</ele><name>Pont du Milieu (Tours)</name><time>0</time></trkpt><trkpt lat="47.385838" lon="0.704147"><ele>0.0</ele><name>Deslandes (Tours)</name><time>0</time></trkpt><trkpt lat="47.385323" lon="0.700798"><ele>0.0</ele><name>Docteur Fournier (Tours)</name><time>0</time></trkpt><trkpt lat="47.387918" lon="0.69787"><ele>0.0</ele><name>Champ Girault (Tours)</name><time>0</time></trkpt><trkpt lat="47.389891" lon="0.694272"><ele>0.0</ele><name>Gare de Tours (Tours)</name><time>0</time></trkpt><trkpt lat="47.389651" lon="0.689418"><ele>0.0</ele><name>Jean Jaurès (Tours)</name><time>0</time></trkpt><trkpt lat="47.386473" lon="0.691159"><ele>0.0</ele><name>Salengro (Tours)</name><time>0</time></trkpt><trkpt lat="47.38404" lon="0.692161"><ele>0.0</ele><name>Boisdenier (Tours)</name><time>0</time></trkpt><trkpt lat="47.380079" lon="0.694574"><ele>0.0</ele><name>Liberté (Tours)</name><time>0</time></trkpt><trkpt lat="47.377026" lon="0.695013"><ele>0.0</ele><name>Charcot (Tours)</name><time>0</time></trkpt><trkpt lat="47.373732" lon="0.696174"><ele>0.0</ele><name>Verdun (Tours)</name><time>0</time></trkpt><trkpt lat="47.367401" lon="0.698911"><ele>0.0</ele><name>Lac (Tours)</name><time>0</time></trkpt><trkpt lat="47.363853" lon="0.702515"><ele>0.0</ele><name>Beethoven (Tours)</name><time>0</time></trkpt><trkpt lat="47.364382" lon="0.706194"><ele>0.0</ele><name>Ecole Commerce (Tours)</name><time>0</time></trkpt><trkpt lat="47.366098" lon="0.709266"><ele>0.0</ele><name>Mozart (Tours)</name><time>0</time></trkpt><trkpt lat="47.367876" lon="0.708961"><ele>0.0</ele><name>D'Indy (Tours)</name><time>0</time></trkpt><trkpt lat="47.368798" lon="0.711872"><ele>0.0</ele><name>Stendhal (Tours)</name><time>0</time></trkpt><trkpt lat="47.367535" lon="0.714149"><ele>0.0</ele><name>Fontaines (Tours)</name><time>0</time></trkpt><trkpt lat="47.368769" lon="0.720084"><ele>0.0</ele><name>Granges Galand (Saint-Avertin)</name><time>0</time></trkpt><trkpt lat="47.366632" lon="0.721645"><ele>0.0</ele><name>Richemont (Saint-Avertin)</name><time>0</time></trkpt><trkpt lat="47.368089" lon="0.728685"><ele>0.0</ele><name>Nouvel Atrium (Saint-Avertin)</name><time>0</time></trkpt><trkpt lat="47.368335" lon="0.731552"><ele>0.0</ele><name>Paul Doumer (Saint-Avertin)</name><time>0</time></trkpt></trkseg></trk><trk><trkseg><trkpt lat="47.368335" lon="0.731552"><ele>0.0</ele><name>Paul Doumer (Saint-Avertin)</name><time>0</time></trkpt><trkpt lat="47.368089" lon="0.728685"><ele>0.0</ele><name>Nouvel Atrium (Saint-Avertin)</name><time>0</time></trkpt><trkpt lat="47.367082" lon="0.726213"><ele>0.0</ele><name>Cottier (Saint-Avertin)</name><time>0</time></trkpt><trkpt lat="47.366632" lon="0.721645"><ele>0.0</ele><name>Richemont (Saint-Avertin)</name><time>0</time></trkpt><trkpt lat="47.368769" lon="0.720084"><ele>0.0</ele><name>Granges Galand (Saint-Avertin)</name><time>0</time></trkpt><trkpt lat="47.367535" lon="0.714149"><ele>0.0</ele><name>Fontaines (Tours)</name><time>0</time></trkpt><trkpt lat="47.368798" lon="0.711872"><ele>0.0</ele><name>Stendhal (Tours)</name><time>0</time></trkpt><trkpt lat="47.367876" lon="0.708961"><ele>0.0</ele><name>D'Indy (Tours)</name><time>0</time></trkpt><trkpt lat="47.366098" lon="0.709266"><ele>0.0</ele><name>Mozart (Tours)</name><time>0</time></trkpt><trkpt lat="47.364382" lon="0.706194"><ele>0.0</ele><name>Ecole Commerce (Tours)</name><time>0</time></trkpt><trkpt lat="47.363853" lon="0.702515"><ele>0.0</ele><name>Beethoven (Tours)</name><time>0</time></trkpt><trkpt lat="47.367401" lon="0.698911"><ele>0.0</ele><name>Lac (Tours)</name><time>0</time></trkpt><trkpt lat="47.373732" lon="0.696174"><ele>0.0</ele><name>Verdun (Tours)</name><time>0</time></trkpt><trkpt lat="47.377026" lon="0.695013"><ele>0.0</ele><name>Charcot (Tours)</name><time>0</time></trkpt><trkpt lat="47.380079" lon="0.694574"><ele>0.0</ele><name>Liberté (Tours)</name><time>0</time></trkpt><trkpt lat="47.38404" lon="0.692161"><ele>0.0</ele><name>Boisdenier (Tours)</name><time>0</time></trkpt><trkpt lat="47.386473" lon="0.691159"><ele>0.0</ele><name>Salengro (Tours)</name><time>0</time></trkpt><trkpt lat="47.389651" lon="0.689418"><ele>0.0</ele><name>Jean Jaurès (Tours)</name><time>0</time></trkpt><trkpt lat="47.390862" lon="0.69358"><ele>0.0</ele><name>Gare Vinci (Tours)</name><time>0</time></trkpt><trkpt lat="47.389891" lon="0.694272"><ele>0.0</ele><name>Gare de Tours (Tours)</name><time>0</time></trkpt><trkpt lat="47.387918" lon="0.69787"><ele>0.0</ele><name>Champ Girault (Tours)</name><time>0</time></trkpt><trkpt lat="47.385323" lon="0.700798"><ele>0.0</ele><name>Docteur Fournier (Tours)</name><time>0</time></trkpt><trkpt lat="47.385838" lon="0.704147"><ele>0.0</ele><name>Deslandes (Tours)</name><time>0</time></trkpt><trkpt lat="47.386605" lon="0.707502"><ele>0.0</ele><name>Pont du Milieu (Tours)</name><time>0</time></trkpt><trkpt lat="47.387424" lon="0.711371"><ele>0.0</ele><name>Semard (Saint-Pierre-des-Corps)</name><time>0</time></trkpt><trkpt lat="47.38917" lon="0.710722"><ele>0.0</ele><name>Audenet (Saint-Pierre-des-Corps)</name><time>0</time></trkpt><trkpt lat="47.389571" lon="0.713068"><ele>0.0</ele><name>Péri (Saint-Pierre-des-Corps)</name><time>0</time></trkpt><trkpt lat="47.389808" lon="0.716452"><ele>0.0</ele><name>Grand Cour (Saint-Pierre-des-Corps)</name><time>0</time></trkpt><trkpt lat="47.389747" lon="0.718507"><ele>0.0</ele><name>Thorez (Saint-Pierre-des-Corps)</name><time>0</time></trkpt><trkpt lat="47.388424" lon="0.719766"><ele>0.0</ele><name>Estienne d'Orves (Saint-Pierre-des-Corps)</name><time>0</time></trkpt><trkpt lat="47.387947" lon="0.721092"><ele>0.0</ele><name>Stalingrad (Saint-Pierre-des-Corps)</name><time>0</time></trkpt><trkpt lat="47.386712" lon="0.723501"><ele>0.0</ele><name>St Pierre Gare (Saint-Pierre-des-Corps)</name><time>0</time></trkpt><trkpt lat="47.38811" lon="0.727618"><ele>0.0</ele><name>Balzac (Saint-Pierre-des-Corps)</name><time>0</time></trkpt><trkpt lat="47.390205" lon="0.72688"><ele>0.0</ele><name>Jean Moulin (Saint-Pierre-des-Corps)</name><time>0</time></trkpt><trkpt lat="47.390999" lon="0.730234"><ele>0.0</ele><name>Viala (Saint-Pierre-des-Corps)</name><time>0</time></trkpt><trkpt lat="47.39193" lon="0.734485"><ele>0.0</ele><name>Déportés (Saint-Pierre-des-Corps)</name><time>0</time></trkpt><trkpt lat="47.392399" lon="0.738419"><ele>0.0</ele><name>Stade (Saint-Pierre-des-Corps)</name><time>0</time></trkpt><trkpt lat="47.393713" lon="0.739122"><ele>0.0</ele><name>Lénine (Saint-Pierre-des-Corps)</name><time>0</time></trkpt><trkpt lat="47.39705" lon="0.741022"><ele>0.0</ele><name>Justices (Saint-Pierre-des-Corps)</name><time>0</time></trkpt></trkseg></trk></gpx>