<?xml version="1.0" encoding="UTF-8" standalone="yes"?><gpx version="1.1" creator="FilBleu Scrapper"><metadata>Filbleu ligne TTRNav64</metadata><trk><trkseg><trkpt lat="47.408923" lon="0.680742"><ele>0.0</ele><name>Tranchée (Tours)</name><time>0</time></trkpt><trkpt lat="47.410675" lon="0.677424"><ele>0.0</ele><name>Portail d'Ormeau (Saint-Cyr-sur-Loire)</name><time>0</time></trkpt><trkpt lat="47.411971" lon="0.674607"><ele>0.0</ele><name>Engerand (Saint-Cyr-sur-Loire)</name><time>0</time></trkpt><trkpt lat="47.413328" lon="0.671676"><ele>0.0</ele><name>Roux (Saint-Cyr-sur-Loire)</name><time>0</time></trkpt><trkpt lat="47.415553" lon="0.668465"><ele>0.0</ele><name>Guynemer (Saint-Cyr-sur-Loire)</name><time>0</time></trkpt><trkpt lat="47.418585" lon="0.66442"><ele>0.0</ele><name>Lande (Saint-Cyr-sur-Loire)</name><time>0</time></trkpt><trkpt lat="47.419924" lon="0.663642"><ele>0.0</ele><name>Charantais (Saint-Cyr-sur-Loire)</name><time>0</time></trkpt><trkpt lat="47.42321" lon="0.666336"><ele>0.0</ele><name>Condorcet (Saint-Cyr-sur-Loire)</name><time>0</time></trkpt><trkpt lat="47.423162" lon="0.6683"><ele>0.0</ele><name>Ampere (Saint-Cyr-sur-Loire)</name><time>0</time></trkpt><trkpt lat="47.423948" lon="0.674141"><ele>0.0</ele><name>Augereau (Tours)</name><time>0</time></trkpt><trkpt lat="47.422439" lon="0.675879"><ele>0.0</ele><name>LP Eiffel (Tours)</name><time>0</time></trkpt><trkpt lat="47.422285" lon="0.680503"><ele>0.0</ele><name>Europe (Tours)</name><time>0</time></trkpt><trkpt lat="47.42219" lon="0.683135"><ele>0.0</ele><name>Beffroi (Tours)</name><time>0</time></trkpt><trkpt lat="47.425439" lon="0.683083"><ele>0.0</ele><name>Charleroi (Tours)</name><time>0</time></trkpt><trkpt lat="47.426259" lon="0.685391"><ele>0.0</ele><name>Loing (Tours)</name><time>0</time></trkpt><trkpt lat="47.427306" lon="0.690675"><ele>0.0</ele><name>LP Clouet (Tours)</name><time>0</time></trkpt><trkpt lat="47.427525" lon="0.697231"><ele>0.0</ele><name>Petite Arche (Tours)</name><time>0</time></trkpt><trkpt lat="47.424755" lon="0.69727"><ele>0.0</ele><name>Luxembourg (Tours)</name><time>0</time></trkpt><trkpt lat="47.423723" lon="0.69758"><ele>0.0</ele><name>Marne (Tours)</name><time>0</time></trkpt><trkpt lat="47.422166" lon="0.696475"><ele>0.0</ele><name>Niepce (Tours)</name><time>0</time></trkpt><trkpt lat="47.419614" lon="0.693544"><ele>0.0</ele><name>Daguerre (Tours)</name><time>0</time></trkpt><trkpt lat="47.418625" lon="0.695198"><ele>0.0</ele><name>Mayer (Tours)</name><time>0</time></trkpt><trkpt lat="47.418822" lon="0.698897"><ele>0.0</ele><name>Pas Notre Dame (Tours)</name><time>0</time></trkpt><trkpt lat="47.418893" lon="0.70364"><ele>0.0</ele><name>Collège Ronsard (Tours)</name><time>0</time></trkpt><trkpt lat="47.418893" lon="0.706471"><ele>0.0</ele><name>Chambrerie (Tours)</name><time>0</time></trkpt><trkpt lat="47.418607" lon="0.711768"><ele>0.0</ele><name>Vieux Noyer (Tours)</name><time>0</time></trkpt><trkpt lat="47.415915" lon="0.711267"><ele>0.0</ele><name>Giraudoux (Tours)</name><time>0</time></trkpt><trkpt lat="47.415257" lon="0.708948"><ele>0.0</ele><name>Carcassonne (Tours)</name><time>0</time></trkpt><trkpt lat="47.412131" lon="0.708062"><ele>0.0</ele><name>Tastes (Tours)</name><time>0</time></trkpt><trkpt lat="47.410393" lon="0.706624"><ele>0.0</ele><name>Lurçat (Tours)</name><time>0</time></trkpt><trkpt lat="47.409035" lon="0.707958"><ele>0.0</ele><name>Belle Isle (Tours)</name><time>0</time></trkpt><trkpt lat="47.408605" lon="0.71096"><ele>0.0</ele><name>Monsoudun (Tours)</name><time>0</time></trkpt><trkpt lat="47.409519" lon="0.713298"><ele>0.0</ele><name>St Libert (Tours)</name><time>0</time></trkpt><trkpt lat="47.407837" lon="0.714919"><ele>0.0</ele><name>La Borde (Tours)</name><time>0</time></trkpt><trkpt lat="47.406156" lon="0.712148"><ele>0.0</ele><name>Wedells (Tours)</name><time>0</time></trkpt><trkpt lat="47.403852" lon="0.710826"><ele>0.0</ele><name>Place Rousseau (Tours)</name><time>0</time></trkpt><trkpt lat="47.403042" lon="0.705058"><ele>0.0</ele><name>St Joseph (Tours)</name><time>0</time></trkpt><trkpt lat="47.403264" lon="0.702303"><ele>0.0</ele><name>Golf (Tours)</name><time>0</time></trkpt><trkpt lat="47.397564" lon="0.697781"><ele>0.0</ele><name>Quai Malraux (Tours)</name><time>0</time></trkpt><trkpt lat="47.397503" lon="0.692887"><ele>0.0</ele><name>Château de Tours (Tours)</name><time>0</time></trkpt><trkpt lat="47.397304" lon="0.689322"><ele>0.0</ele><name>Voltaire (Tours)</name><time>0</time></trkpt><trkpt lat="47.39643" lon="0.685927"><ele>0.0</ele><name>Anatole France (Tours)</name><time>0</time></trkpt></trkseg></trk></gpx>