<?xml version="1.0" encoding="UTF-8" standalone="yes"?><gpx version="1.1" creator="FilBleu Scrapper"><metadata>Filbleu ligne TTRNav101</metadata><trk><trkseg><trkpt lat="47.40642" lon="0.720071"><ele>0.0</ele><name>MFR Rougemont (Tours)</name><time>0</time></trkpt><trkpt lat="47.407842" lon="0.714926"><ele>0.0</ele><name>La Borde (Tours)</name><time>0</time></trkpt><trkpt lat="47.406156" lon="0.712154"><ele>0.0</ele><name>Wedells (Tours)</name><time>0</time></trkpt><trkpt lat="47.403852" lon="0.710833"><ele>0.0</ele><name>Place Rousseau (Tours)</name><time>0</time></trkpt><trkpt lat="47.403042" lon="0.705053"><ele>0.0</ele><name>St Joseph (Tours)</name><time>0</time></trkpt><trkpt lat="47.403264" lon="0.702303"><ele>0.0</ele><name>Golf (Tours)</name><time>0</time></trkpt><trkpt lat="47.395491" lon="0.699759"><ele>0.0</ele><name>Ursulines (Tours)</name><time>0</time></trkpt><trkpt lat="47.392067" lon="0.70001"><ele>0.0</ele><name>Mirabeau (Tours)</name><time>0</time></trkpt><trkpt lat="47.391349" lon="0.696998"><ele>0.0</ele><name>Heurteloup (Tours)</name><time>0</time></trkpt><trkpt lat="47.390795" lon="0.692815"><ele>0.0</ele><name>Gare Vinci (Tours)</name><time>0</time></trkpt></trkseg></trk></gpx>