<?xml version="1.0" encoding="UTF-8" standalone="yes"?>
<gpx xmlns="http://www.topografix.com/GPX/1/1" version="1.1" creator="FilBleuExporter">
	<metadata>Filbleu - Ligne 06</metadata>
	<wpt lon="0.682092" lat="47.367668">
		<ele>0.0</ele>
		<name>Michelin</name>
	</wpt>
	<wpt lon="0.703076" lat="47.393837">
		<ele>0.0</ele>
		<name>Renan</name>
	</wpt>
	<wpt lon="0.676772" lat="47.384992">
		<ele>0.0</ele>
		<name>Rabelais</name>
	</wpt>
	<wpt lon="0.683994" lat="47.366534">
		<ele>0.0</ele>
		<name>2 Lions</name>
	</wpt>
	<wpt lon="0.677438" lat="47.370273">
		<ele>0.0</ele>
		<name>Jacques Monod</name>
	</wpt>
	<wpt lon="0.696975" lat="47.391227">
		<ele>0.0</ele>
		<name>Heurteloup</name>
	</wpt>
	<wpt lon="0.676553" lat="47.387148">
		<ele>0.0</ele>
		<name>Arago</name>
	</wpt>
	<wpt lon="0.706465" lat="47.347091">
		<ele>0.0</ele>
		<name>P+R Sagerie</name>
	</wpt>
	<wpt lon="0.689703" lat="47.360709">
		<ele>0.0</ele>
		<name>Trobriand</name>
	</wpt>
	<wpt lon="0.677058" lat="47.382401">
		<ele>0.0</ele>
		<name>Giraudeau</name>
	</wpt>
	<wpt lon="0.710370" lat="47.345787">
		<ele>0.0</ele>
		<name>Dujardin</name>
	</wpt>
	<wpt lon="0.680267" lat="47.379617">
		<ele>0.0</ele>
		<name>Strasbourg</name>
	</wpt>
	<wpt lon="0.727009" lat="47.388194">
		<ele>0.0</ele>
		<name>Anguille</name>
	</wpt>
	<wpt lon="0.692803" lat="47.390745">
		<ele>0.0</ele>
		<name>Gare Vinci</name>
	</wpt>
	<wpt lon="0.721977" lat="47.381556">
		<ele>0.0</ele>
		<name>Monteil</name>
	</wpt>
	<wpt lon="0.700378" lat="47.392230">
		<ele>0.0</ele>
		<name>Loiseau d'Entraigues</name>
	</wpt>
	<wpt lon="0.726357" lat="47.381932">
		<ele>0.0</ele>
		<name>Grands Mortiers</name>
	</wpt>
	<wpt lon="0.676885" lat="47.379980">
		<ele>0.0</ele>
		<name>Général Renault</name>
	</wpt>
	<wpt lon="0.713096" lat="47.395225">
		<ele>0.0</ele>
		<name>Jean Bonnin</name>
	</wpt>
	<wpt lon="0.724077" lat="47.394915">
		<ele>0.0</ele>
		<name>Jacques Decour</name>
	</wpt>
	<wpt lon="0.688495" lat="47.389854">
		<ele>0.0</ele>
		<name>Jean Jaurès</name>
	</wpt>
	<wpt lon="0.718405" lat="47.379226">
		<ele>0.0</ele>
		<name>Atlantes</name>
	</wpt>
	<wpt lon="0.685483" lat="47.363978">
		<ele>0.0</ele>
		<name>Polytech</name>
	</wpt>
	<wpt lon="0.721401" lat="47.394886">
		<ele>0.0</ele>
		<name>Val Fleuri</name>
	</wpt>
	<wpt lon="0.678983" lat="47.376733">
		<ele>0.0</ele>
		<name>Erables</name>
	</wpt>
	<wpt lon="0.722868" lat="47.386690">
		<ele>0.0</ele>
		<name>St Pierre Gare</name>
	</wpt>
	<wpt lon="0.719192" lat="47.389507">
		<ele>0.0</ele>
		<name>St Pierre Centre</name>
	</wpt>
	<wpt lon="0.723332" lat="47.391926">
		<ele>0.0</ele>
		<name>Romarins</name>
	</wpt>
	<wpt lon="0.720314" lat="47.387898">
		<ele>0.0</ele>
		<name>Stalingrad</name>
	</wpt>
	<wpt lon="0.698441" lat="47.355575">
		<ele>0.0</ele>
		<name>Bd de Chinon</name>
	</wpt>
	<wpt lon="0.679247" lat="47.374087">
		<ele>0.0</ele>
		<name>St Sauveur</name>
	</wpt>
	<wpt lon="0.693770" lat="47.358916">
		<ele>0.0</ele>
		<name>Camus</name>
	</wpt>
	<wpt lon="0.692121" lat="47.359418">
		<ele>0.0</ele>
		<name>Camélias</name>
	</wpt>
	<wpt lon="0.681492" lat="47.389131">
		<ele>0.0</ele>
		<name>Clocheville</name>
	</wpt>
	<wpt lon="0.725494" lat="47.393607">
		<ele>0.0</ele>
		<name>Grand Mail</name>
	</wpt>
	<wpt lon="0.711617" lat="47.347901">
		<ele>0.0</ele>
		<name>Hôpital Trousseau</name>
	</wpt>
	<wpt lon="0.699416" lat="47.353568">
		<ele>0.0</ele>
		<name>Fourbisserie</name>
	</wpt>
	<wpt lon="0.677167" lat="47.388553">
		<ele>0.0</ele>
		<name>St Eloi</name>
	</wpt>
	<wpt lon="0.715281" lat="47.395062">
		<ele>0.0</ele>
		<name>Boileau</name>
	</wpt>
	<wpt lon="0.719236" lat="47.391784">
		<ele>0.0</ele>
		<name>Bouleaux</name>
	</wpt>
	<wpt lon="0.730424" lat="47.382454">
		<ele>0.0</ele>
		<name>Pichotière</name>
	</wpt>
	<wpt lon="0.688112" lat="47.363759">
		<ele>0.0</ele>
		<name>Dassault</name>
	</wpt>
	<wpt lon="0.718682" lat="47.394767">
		<ele>0.0</ele>
		<name>La Madeleine</name>
	</wpt>
	<wpt lon="0.683797" lat="47.389803">
		<ele>0.0</ele>
		<name>Béranger</name>
	</wpt>
	<wpt lon="0.709974" lat="47.395743">
		<ele>0.0</ele>
		<name>Jéricho</name>
	</wpt>
</gpx>
