<?xml version="1.0" encoding="UTF-8" standalone="yes"?><gpx version="1.1" creator="FilBleu Scrapper"><metadata>Filbleu ligne 57</metadata><trk><trkseg><trkpt lat="47.387188" lon="0.551734"><ele>0.0</ele><name>Lilas</name><time>0</time></trkpt><trkpt lat="47.385642" lon="0.553547"><ele>0.0</ele><name>Luynes Centre</name><time>0</time></trkpt><trkpt lat="47.384683" lon="0.555235"><ele>0.0</ele><name>St Venant</name><time>0</time></trkpt><trkpt lat="47.383447" lon="0.554488"><ele>0.0</ele><name>Baugé</name><time>0</time></trkpt><trkpt lat="47.385331" lon="0.55995"><ele>0.0</ele><name>Stade Varenne</name><time>0</time></trkpt><trkpt lat="47.38614" lon="0.56342"><ele>0.0</ele><name>La Planche</name><time>0</time></trkpt><trkpt lat="47.387468" lon="0.569967"><ele>0.0</ele><name>Chêne Vert</name><time>0</time></trkpt><trkpt lat="47.388415" lon="0.578077"><ele>0.0</ele><name>Gannay</name><time>0</time></trkpt><trkpt lat="47.389192" lon="0.584524"><ele>0.0</ele><name>Les Muses</name><time>0</time></trkpt><trkpt lat="47.389498" lon="0.589264"><ele>0.0</ele><name>Chatigny</name><time>0</time></trkpt><trkpt lat="47.390501" lon="0.593241"><ele>0.0</ele><name>Mareuil</name><time>0</time></trkpt><trkpt lat="47.389294" lon="0.597206"><ele>0.0</ele><name>Chevalette</name><time>0</time></trkpt><trkpt lat="47.389179" lon="0.606988"><ele>0.0</ele><name>Vallières</name><time>0</time></trkpt><trkpt lat="47.388313" lon="0.60952"><ele>0.0</ele><name>Port de Vallières</name><time>0</time></trkpt><trkpt lat="47.387687" lon="0.616151"><ele>0.0</ele><name>Pavillon Chinois</name><time>0</time></trkpt><trkpt lat="47.388792" lon="0.622077"><ele>0.0</ele><name>Martigny</name><time>0</time></trkpt><trkpt lat="47.389593" lon="0.626033"><ele>0.0</ele><name>Tartifume</name><time>0</time></trkpt><trkpt lat="47.390336" lon="0.632461"><ele>0.0</ele><name>La Bonde</name><time>0</time></trkpt><trkpt lat="47.391745" lon="0.641134"><ele>0.0</ele><name>Guignière</name><time>0</time></trkpt><trkpt lat="47.39361" lon="0.646199"><ele>0.0</ele><name>Pont de la Motte</name><time>0</time></trkpt><trkpt lat="47.393578" lon="0.669771"><ele>0.0</ele><name>LP Bayet</name><time>0</time></trkpt><trkpt lat="47.392419" lon="0.672666"><ele>0.0</ele><name>Lamartine</name><time>0</time></trkpt><trkpt lat="47.390927" lon="0.673699"><ele>0.0</ele><name>Rouget de l'Isle</name><time>0</time></trkpt><trkpt lat="47.389481" lon="0.674851"><ele>0.0</ele><name>Frumeaud</name><time>0</time></trkpt><trkpt lat="47.388553" lon="0.677167"><ele>0.0</ele><name>St Eloi</name><time>0</time></trkpt><trkpt lat="47.389131" lon="0.681492"><ele>0.0</ele><name>Clocheville</name><time>0</time></trkpt><trkpt lat="47.389803" lon="0.683797"><ele>0.0</ele><name>Béranger</name><time>0</time></trkpt><trkpt lat="47.389854" lon="0.688495"><ele>0.0</ele><name>Jean Jaurès</name><time>0</time></trkpt><trkpt lat="47.390745" lon="0.692803"><ele>0.0</ele><name>Gare Vinci</name><time>0</time></trkpt></trkseg></trk></gpx>