<?xml version="1.0" encoding="UTF-8" standalone="yes"?><gpx version="1.1" creator="FilBleu Scrapper"><metadata>Filbleu ligne TTR_Nav101</metadata><trk><trkseg><trkpt lat="47.390862" lon="0.69358"><ele>0.0</ele><name>Gare Vinci (Tours)</name><time>0</time></trkpt><trkpt lat="47.391416" lon="0.697763"><ele>0.0</ele><name>Heurteloup (Tours)</name><time>0</time></trkpt><trkpt lat="47.392133" lon="0.700775"><ele>0.0</ele><name>Mirabeau (Tours)</name><time>0</time></trkpt><trkpt lat="47.395558" lon="0.700524"><ele>0.0</ele><name>Ursulines (Tours)</name><time>0</time></trkpt><trkpt lat="47.403109" lon="0.705818"><ele>0.0</ele><name>St Joseph (Tours)</name><time>0</time></trkpt><trkpt lat="47.403919" lon="0.711598"><ele>0.0</ele><name>Place Rousseau (Tours)</name><time>0</time></trkpt><trkpt lat="47.406223" lon="0.712919"><ele>0.0</ele><name>Wedells (Tours)</name><time>0</time></trkpt><trkpt lat="47.407908" lon="0.71569"><ele>0.0</ele><name>La Borde (Tours)</name><time>0</time></trkpt><trkpt lat="47.406487" lon="0.720836"><ele>0.0</ele><name>MFR Rougemont (Tours)</name><time>0</time></trkpt></trkseg></trk><trk><trkseg><trkpt lat="47.406487" lon="0.720836"><ele>0.0</ele><name>MFR Rougemont (Tours)</name><time>0</time></trkpt><trkpt lat="47.407908" lon="0.71569"><ele>0.0</ele><name>La Borde (Tours)</name><time>0</time></trkpt><trkpt lat="47.406223" lon="0.712919"><ele>0.0</ele><name>Wedells (Tours)</name><time>0</time></trkpt><trkpt lat="47.403919" lon="0.711598"><ele>0.0</ele><name>Place Rousseau (Tours)</name><time>0</time></trkpt><trkpt lat="47.403109" lon="0.705818"><ele>0.0</ele><name>St Joseph (Tours)</name><time>0</time></trkpt><trkpt lat="47.403331" lon="0.703068"><ele>0.0</ele><name>Golf (Tours)</name><time>0</time></trkpt><trkpt lat="47.395558" lon="0.700524"><ele>0.0</ele><name>Ursulines (Tours)</name><time>0</time></trkpt><trkpt lat="47.392133" lon="0.700775"><ele>0.0</ele><name>Mirabeau (Tours)</name><time>0</time></trkpt><trkpt lat="47.391416" lon="0.697763"><ele>0.0</ele><name>Heurteloup (Tours)</name><time>0</time></trkpt><trkpt lat="47.390862" lon="0.69358"><ele>0.0</ele><name>Gare Vinci (Tours)</name><time>0</time></trkpt></trkseg></trk></gpx>