<?xml version="1.0" encoding="UTF-8" standalone="yes"?>
<gpx xmlns="http://www.topografix.com/GPX/1/1" version="1.1" creator="FilBleuExporter">
	<metadata>Filbleu - Ligne 60</metadata>
	<wpt lon="0.698213" lat="47.436130">
		<ele>0.0</ele>
		<name>Milletière</name>
	</wpt>
	<wpt lon="0.704958" lat="47.434634">
		<ele>0.0</ele>
		<name>Priestley</name>
	</wpt>
	<wpt lon="0.698523" lat="47.397492">
		<ele>0.0</ele>
		<name>Mirabeau</name>
	</wpt>
	<wpt lon="0.705561" lat="47.423063">
		<ele>0.0</ele>
		<name>Lycée Vaucanson</name>
	</wpt>
	<wpt lon="0.708492" lat="47.437770">
		<ele>0.0</ele>
		<name>Mouchotte</name>
	</wpt>
	<wpt lon="0.697699" lat="47.432804">
		<ele>0.0</ele>
		<name>Danemark</name>
	</wpt>
	<wpt lon="0.685875" lat="47.396499">
		<ele>0.0</ele>
		<name>Anatole France</name>
	</wpt>
	<wpt lon="0.701515" lat="47.436974">
		<ele>0.0</ele>
		<name>Huygens</name>
	</wpt>
	<wpt lon="0.733647" lat="47.405133">
		<ele>0.0</ele>
		<name>St Georges</name>
	</wpt>
	<wpt lon="0.750431" lat="47.407812">
		<ele>0.0</ele>
		<name>Basses Rivières</name>
	</wpt>
	<wpt lon="0.752884" lat="47.430095">
		<ele>0.0</ele>
		<name>Vaudasnière</name>
	</wpt>
	<wpt lon="0.742279" lat="47.445568">
		<ele>0.0</ele>
		<name>Grange de Meslay</name>
	</wpt>
	<wpt lon="0.710489" lat="47.439273">
		<ele>0.0</ele>
		<name>Bas Champeigne</name>
	</wpt>
	<wpt lon="0.692847" lat="47.397480">
		<ele>0.0</ele>
		<name>Château de Tours</name>
	</wpt>
	<wpt lon="0.714979" lat="47.442274">
		<ele>0.0</ele>
		<name>Dewoitine</name>
	</wpt>
	<wpt lon="0.750817" lat="47.438294">
		<ele>0.0</ele>
		<name>Frasne</name>
	</wpt>
	<wpt lon="0.726807" lat="47.403887">
		<ele>0.0</ele>
		<name>Beauregard</name>
	</wpt>
	<wpt lon="0.701405" lat="47.403175">
		<ele>0.0</ele>
		<name>Golf</name>
	</wpt>
	<wpt lon="0.711682" lat="47.402506">
		<ele>0.0</ele>
		<name>Ste Radegonde</name>
	</wpt>
	<wpt lon="0.697196" lat="47.430593">
		<ele>0.0</ele>
		<name>D'Alembert</name>
	</wpt>
	<wpt lon="0.721256" lat="47.402523">
		<ele>0.0</ele>
		<name>Les Rochettes</name>
	</wpt>
	<wpt lon="0.717257" lat="47.401783">
		<ele>0.0</ele>
		<name>Marmoutier</name>
	</wpt>
	<wpt lon="0.689295" lat="47.397322">
		<ele>0.0</ele>
		<name>Voltaire</name>
	</wpt>
	<wpt lon="0.698783" lat="47.427436">
		<ele>0.0</ele>
		<name>Petite Arche</name>
	</wpt>
	<wpt lon="0.744908" lat="47.442113">
		<ele>0.0</ele>
		<name>Parcay-Meslay Centre</name>
	</wpt>
	<wpt lon="0.748809" lat="47.442711">
		<ele>0.0</ele>
		<name>Les Sablonnières</name>
	</wpt>
	<wpt lon="0.720765" lat="47.448936">
		<ele>0.0</ele>
		<name>Saulnier</name>
	</wpt>
	<wpt lon="0.748757" lat="47.435571">
		<ele>0.0</ele>
		<name>Perrières</name>
	</wpt>
	<wpt lon="0.757897" lat="47.413461">
		<ele>0.0</ele>
		<name>Les Gatinières</name>
	</wpt>
	<wpt lon="0.759483" lat="47.410266">
		<ele>0.0</ele>
		<name>Les Clouets</name>
	</wpt>
	<wpt lon="0.751508" lat="47.441358">
		<ele>0.0</ele>
		<name>Les Locquets</name>
	</wpt>
	<wpt lon="0.737298" lat="47.447569">
		<ele>0.0</ele>
		<name>Le Pluvier</name>
	</wpt>
	<wpt lon="0.737986" lat="47.406053">
		<ele>0.0</ele>
		<name>Petit Versailles</name>
	</wpt>
	<wpt lon="0.757900" lat="47.408656">
		<ele>0.0</ele>
		<name>Observaloire</name>
	</wpt>
	<wpt lon="0.717567" lat="47.445270">
		<ele>0.0</ele>
		<name>ZA Papillon</name>
	</wpt>
	<wpt lon="0.755189" lat="47.427472">
		<ele>0.0</ele>
		<name>La Planche</name>
	</wpt>
	<wpt lon="0.756035" lat="47.416836">
		<ele>0.0</ele>
		<name>Fontenelles</name>
	</wpt>
	<wpt lon="0.753708" lat="47.419521">
		<ele>0.0</ele>
		<name>Touvoie</name>
	</wpt>
	<wpt lon="0.704946" lat="47.403086">
		<ele>0.0</ele>
		<name>St Joseph</name>
	</wpt>
	<wpt lon="0.748069" lat="47.437289">
		<ele>0.0</ele>
		<name>La Vallée</name>
	</wpt>
	<wpt lon="0.744153" lat="47.406808">
		<ele>0.0</ele>
		<name>La Tesserie</name>
	</wpt>
	<wpt lon="0.728203" lat="47.448333">
		<ele>0.0</ele>
		<name>La Coudrière</name>
	</wpt>
</gpx>
