<?xml version="1.0" encoding="UTF-8" standalone="yes"?><gpx version="1.1" creator="FilBleu Scrapper"><metadata>Filbleu ligne TTRNav90</metadata><trk><trkseg><trkpt lat="47.390652" lon="0.71937"><ele>0.0</ele><name>St Pierre Centre (Saint-Pierre-des-Corps)</name><time>0</time></trkpt><trkpt lat="47.394798" lon="0.718615"><ele>0.0</ele><name>La Madeleine (Saint-Pierre-des-Corps)</name><time>0</time></trkpt><trkpt lat="47.394886" lon="0.721401"><ele>0.0</ele><name>Val Fleuri (Saint-Pierre-des-Corps)</name><time>0</time></trkpt><trkpt lat="47.394973" lon="0.724075"><ele>0.0</ele><name>Jacques Decour (Saint-Pierre-des-Corps)</name><time>0</time></trkpt><trkpt lat="47.393607" lon="0.725494"><ele>0.0</ele><name>Grand Mail (Saint-Pierre-des-Corps)</name><time>0</time></trkpt><trkpt lat="47.390141" lon="0.726119"><ele>0.0</ele><name>Jean Moulin (Saint-Pierre-des-Corps)</name><time>0</time></trkpt><trkpt lat="47.377143" lon="0.732336"><ele>0.0</ele><name>Becquerel (Saint-Pierre-des-Corps)</name><time>0</time></trkpt></trkseg></trk></gpx>