<?xml version="1.0" encoding="UTF-8" standalone="yes"?>
<gpx xmlns="http://www.topografix.com/GPX/1/1" version="1.1" creator="FilBleuExporter">
	<metadata>Filbleu - Ligne 74</metadata>
	<wpt lon="0.701716" lat="47.355845">
		<ele>0.0</ele>
		<name>Arsonval</name>
	</wpt>
	<wpt lon="0.701145" lat="47.363663">
		<ele>0.0</ele>
		<name>Parc Nord</name>
	</wpt>
	<wpt lon="0.688495" lat="47.389854">
		<ele>0.0</ele>
		<name>Jean Jaurès</name>
	</wpt>
	<wpt lon="0.732789" lat="47.337364">
		<ele>0.0</ele>
		<name>Ockeghem</name>
	</wpt>
	<wpt lon="0.701769" lat="47.360588">
		<ele>0.0</ele>
		<name>J.P. Rameau</name>
	</wpt>
	<wpt lon="0.728150" lat="47.339135">
		<ele>0.0</ele>
		<name>LP Agricole</name>
	</wpt>
	<wpt lon="0.703977" lat="47.360857">
		<ele>0.0</ele>
		<name>Lycée Grandmont</name>
	</wpt>
	<wpt lon="0.770800" lat="47.321591">
		<ele>0.0</ele>
		<name>Nécropole D'esvres</name>
	</wpt>
	<wpt lon="0.706465" lat="47.347091">
		<ele>0.0</ele>
		<name>P+R Sagerie</name>
	</wpt>
	<wpt lon="0.694569" lat="47.376186">
		<ele>0.0</ele>
		<name>Charcot</name>
	</wpt>
	<wpt lon="0.703168" lat="47.364411">
		<ele>0.0</ele>
		<name>Beethoven</name>
	</wpt>
	<wpt lon="0.710370" lat="47.345787">
		<ele>0.0</ele>
		<name>Dujardin</name>
	</wpt>
	<wpt lon="0.749009" lat="47.331335">
		<ele>0.0</ele>
		<name>Cimetière des Ricotières</name>
	</wpt>
	<wpt lon="0.692803" lat="47.390745">
		<ele>0.0</ele>
		<name>Gare Vinci</name>
	</wpt>
	<wpt lon="0.702396" lat="47.357182">
		<ele>0.0</ele>
		<name>Faculté de Grandmont</name>
	</wpt>
	<wpt lon="0.690352" lat="47.386473">
		<ele>0.0</ele>
		<name>Salengro</name>
	</wpt>
	<wpt lon="0.695388" lat="47.373957">
		<ele>0.0</ele>
		<name>Verdun</name>
	</wpt>
	<wpt lon="0.692710" lat="47.379563">
		<ele>0.0</ele>
		<name>Place de la Liberté</name>
	</wpt>
	<wpt lon="0.698146" lat="47.367334">
		<ele>0.0</ele>
		<name>Lac</name>
	</wpt>
	<wpt lon="0.723084" lat="47.340969">
		<ele>0.0</ele>
		<name>Tilleuls</name>
	</wpt>
	<wpt lon="0.747064" lat="47.332226">
		<ele>0.0</ele>
		<name>Bois des Hâtes</name>
	</wpt>
	<wpt lon="0.717413" lat="47.343047">
		<ele>0.0</ele>
		<name>Bois Cormier</name>
	</wpt>
	<wpt lon="0.699416" lat="47.353568">
		<ele>0.0</ele>
		<name>Fourbisserie</name>
	</wpt>
	<wpt lon="0.691499" lat="47.383901">
		<ele>0.0</ele>
		<name>Boisdenier</name>
	</wpt>
</gpx>
