<?xml version="1.0" encoding="UTF-8" standalone="yes"?><gpx version="1.1" creator="FilBleu Scrapper"><metadata>Filbleu ligne TTRNav93</metadata><trk><trkseg><trkpt lat="47.352826" lon="0.716318"><ele>0.0</ele><name>Grands Champs (Saint-Avertin)</name><time>0</time></trkpt><trkpt lat="47.35445" lon="0.721155"><ele>0.0</ele><name>Jules Romains (Saint-Avertin)</name><time>0</time></trkpt><trkpt lat="47.35554" lon="0.724524"><ele>0.0</ele><name>De Gaulle (Saint-Avertin)</name><time>0</time></trkpt><trkpt lat="47.356364" lon="0.728074"><ele>0.0</ele><name>Croix Perray (Saint-Avertin)</name><time>0</time></trkpt><trkpt lat="47.357388" lon="0.734452"><ele>0.0</ele><name>Pierres Plates (Saint-Avertin)</name><time>0</time></trkpt><trkpt lat="47.357877" lon="0.736608"><ele>0.0</ele><name>Camusière (Saint-Avertin)</name><time>0</time></trkpt><trkpt lat="47.358605" lon="0.739817"><ele>0.0</ele><name>Apollinaire (Saint-Avertin)</name><time>0</time></trkpt><trkpt lat="47.361343" lon="0.742013"><ele>0.0</ele><name>Aragon (Saint-Avertin)</name><time>0</time></trkpt><trkpt lat="47.363202" lon="0.740421"><ele>0.0</ele><name>Pinterie (Saint-Avertin)</name><time>0</time></trkpt><trkpt lat="47.361863" lon="0.737972"><ele>0.0</ele><name>Oiselet (Saint-Avertin)</name><time>0</time></trkpt><trkpt lat="47.362597" lon="0.734468"><ele>0.0</ele><name>Château Fraisier (Saint-Avertin)</name><time>0</time></trkpt><trkpt lat="47.364497" lon="0.735814"><ele>0.0</ele><name>Alsace (Saint-Avertin)</name><time>0</time></trkpt><trkpt lat="47.366547" lon="0.738348"><ele>0.0</ele><name>St Michel (Saint-Avertin)</name><time>0</time></trkpt><trkpt lat="47.368269" lon="0.730788"><ele>0.0</ele><name>Paul Doumer (Saint-Avertin)</name><time>0</time></trkpt><trkpt lat="47.368022" lon="0.727961"><ele>0.0</ele><name>L'Atrium (Saint-Avertin)</name><time>0</time></trkpt><trkpt lat="47.367016" lon="0.725449"><ele>0.0</ele><name>Cottier (Saint-Avertin)</name><time>0</time></trkpt><trkpt lat="47.366863" lon="0.720951"><ele>0.0</ele><name>Richemont (Saint-Avertin)</name><time>0</time></trkpt><trkpt lat="47.368703" lon="0.71932"><ele>0.0</ele><name>Granges Galand (Saint-Avertin)</name><time>0</time></trkpt><trkpt lat="47.369852" lon="0.71853"><ele>0.0</ele><name>L'Essart (Saint-Avertin)</name><time>0</time></trkpt><trkpt lat="47.374494" lon="0.725541"><ele>0.0</ele><name>Aviron (Saint-Pierre-des-Corps)</name><time>0</time></trkpt><trkpt lat="47.377143" lon="0.732336"><ele>0.0</ele><name>Becquerel (Saint-Pierre-des-Corps)</name><time>0</time></trkpt></trkseg></trk><trk><trkseg><trkpt lat="47.377143" lon="0.732336"><ele>0.0</ele><name>Becquerel (Saint-Pierre-des-Corps)</name><time>0</time></trkpt><trkpt lat="47.374494" lon="0.725541"><ele>0.0</ele><name>Aviron (Saint-Pierre-des-Corps)</name><time>0</time></trkpt><trkpt lat="47.369852" lon="0.71853"><ele>0.0</ele><name>L'Essart (Saint-Avertin)</name><time>0</time></trkpt><trkpt lat="47.368703" lon="0.71932"><ele>0.0</ele><name>Granges Galand (Saint-Avertin)</name><time>0</time></trkpt><trkpt lat="47.366863" lon="0.720951"><ele>0.0</ele><name>Richemont (Saint-Avertin)</name><time>0</time></trkpt><trkpt lat="47.368022" lon="0.727961"><ele>0.0</ele><name>L'Atrium (Saint-Avertin)</name><time>0</time></trkpt><trkpt lat="47.368269" lon="0.730788"><ele>0.0</ele><name>Paul Doumer (Saint-Avertin)</name><time>0</time></trkpt><trkpt lat="47.366547" lon="0.738348"><ele>0.0</ele><name>St Michel (Saint-Avertin)</name><time>0</time></trkpt><trkpt lat="47.364497" lon="0.735814"><ele>0.0</ele><name>Alsace (Saint-Avertin)</name><time>0</time></trkpt><trkpt lat="47.362597" lon="0.734468"><ele>0.0</ele><name>Château Fraisier (Saint-Avertin)</name><time>0</time></trkpt><trkpt lat="47.361863" lon="0.737972"><ele>0.0</ele><name>Oiselet (Saint-Avertin)</name><time>0</time></trkpt><trkpt lat="47.363202" lon="0.740421"><ele>0.0</ele><name>Pinterie (Saint-Avertin)</name><time>0</time></trkpt><trkpt lat="47.361343" lon="0.742013"><ele>0.0</ele><name>Aragon (Saint-Avertin)</name><time>0</time></trkpt><trkpt lat="47.358605" lon="0.739817"><ele>0.0</ele><name>Apollinaire (Saint-Avertin)</name><time>0</time></trkpt><trkpt lat="47.357877" lon="0.736608"><ele>0.0</ele><name>Camusière (Saint-Avertin)</name><time>0</time></trkpt><trkpt lat="47.357388" lon="0.734452"><ele>0.0</ele><name>Pierres Plates (Saint-Avertin)</name><time>0</time></trkpt><trkpt lat="47.356364" lon="0.728074"><ele>0.0</ele><name>Croix Perray (Saint-Avertin)</name><time>0</time></trkpt><trkpt lat="47.35554" lon="0.724524"><ele>0.0</ele><name>De Gaulle (Saint-Avertin)</name><time>0</time></trkpt><trkpt lat="47.35445" lon="0.721155"><ele>0.0</ele><name>Jules Romains (Saint-Avertin)</name><time>0</time></trkpt><trkpt lat="47.352826" lon="0.716318"><ele>0.0</ele><name>Grands Champs (Saint-Avertin)</name><time>0</time></trkpt></trkseg></trk></gpx>