<?xml version="1.0" encoding="UTF-8" standalone="yes"?><gpx version="1.1" creator="FilBleu Scrapper"><metadata>Filbleu ligne 15</metadata><trk><trkseg><trkpt lat="47.403175" lon="0.701405"><ele>0.0</ele><name>Golf</name><time>0</time></trkpt><trkpt lat="47.403086" lon="0.704946"><ele>0.0</ele><name>St Joseph</name><time>0</time></trkpt><trkpt lat="47.405455" lon="0.70323"><ele>0.0</ele><name>Ste Radegonde-Ermitage</name><time>0</time></trkpt><trkpt lat="47.406752" lon="0.705543"><ele>0.0</ele><name>Chaudron</name><time>0</time></trkpt><trkpt lat="47.408938" lon="0.706225"><ele>0.0</ele><name>Dorgelès</name><time>0</time></trkpt><trkpt lat="47.409035" lon="0.707958"><ele>0.0</ele><name>Belle Isle</name><time>0</time></trkpt><trkpt lat="47.408605" lon="0.71096"><ele>0.0</ele><name>Monsoudun</name><time>0</time></trkpt><trkpt lat="47.409519" lon="0.713298"><ele>0.0</ele><name>St Libert</name><time>0</time></trkpt><trkpt lat="47.407837" lon="0.714919"><ele>0.0</ele><name>La Borde</name><time>0</time></trkpt><trkpt lat="47.40617" lon="0.712147"><ele>0.0</ele><name>Wedells</name><time>0</time></trkpt><trkpt lat="47.403852" lon="0.710826"><ele>0.0</ele><name>Ste Radegonde Centre</name><time>0</time></trkpt><trkpt lat="47.402816" lon="0.697288"><ele>0.0</ele><name>Ile Aucard</name><time>0</time></trkpt><trkpt lat="47.402231" lon="0.693834"><ele>0.0</ele><name>Paul Bert</name><time>0</time></trkpt><trkpt lat="47.401789" lon="0.689283"><ele>0.0</ele><name>Capucins</name><time>0</time></trkpt><trkpt lat="47.401383" lon="0.684652"><ele>0.0</ele><name>Place Choiseul</name><time>0</time></trkpt><trkpt lat="47.400556" lon="0.678282"><ele>0.0</ele><name>Portillon</name><time>0</time></trkpt><trkpt lat="47.39587" lon="0.680568"><ele>0.0</ele><name>Faculté des Tanneurs</name><time>0</time></trkpt><trkpt lat="47.39588" lon="0.68386"><ele>0.0</ele><name>Constantine</name><time>0</time></trkpt><trkpt lat="47.393507" lon="0.685"><ele>0.0</ele><name>Marceau</name><time>0</time></trkpt><trkpt lat="47.393365" lon="0.68739"><ele>0.0</ele><name>Emile Zola</name><time>0</time></trkpt><trkpt lat="47.389854" lon="0.688495"><ele>0.0</ele><name>Jean Jaurès</name><time>0</time></trkpt><trkpt lat="47.386473" lon="0.690352"><ele>0.0</ele><name>Salengro</name><time>0</time></trkpt><trkpt lat="47.383901" lon="0.691499"><ele>0.0</ele><name>Boisdenier</name><time>0</time></trkpt><trkpt lat="47.383665" lon="0.695055"><ele>0.0</ele><name>Palais des Sports</name><time>0</time></trkpt><trkpt lat="47.382338" lon="0.696672"><ele>0.0</ele><name>Sanitas</name><time>0</time></trkpt><trkpt lat="47.380712" lon="0.698914"><ele>0.0</ele><name>Venien</name><time>0</time></trkpt><trkpt lat="47.381308" lon="0.702088"><ele>0.0</ele><name>Mermoz</name><time>0</time></trkpt><trkpt lat="47.381709" lon="0.70499"><ele>0.0</ele><name>Rotonde</name><time>0</time></trkpt><trkpt lat="47.379885" lon="0.708655"><ele>0.0</ele><name>Champ Joli</name><time>0</time></trkpt><trkpt lat="47.378728" lon="0.710512"><ele>0.0</ele><name>Raspail</name><time>0</time></trkpt><trkpt lat="47.377461" lon="0.712571"><ele>0.0</ele><name>Leccia</name><time>0</time></trkpt><trkpt lat="47.377569" lon="0.716051"><ele>0.0</ele><name>Duclos - Atlantes</name><time>0</time></trkpt><trkpt lat="47.37656" lon="0.719238"><ele>0.0</ele><name>Parc des Expositions</name><time>0</time></trkpt><trkpt lat="47.369607" lon="0.71869"><ele>0.0</ele><name>L'essart</name><time>0</time></trkpt><trkpt lat="47.369166" lon="0.718998"><ele>0.0</ele><name>Granges Galand</name><time>0</time></trkpt><trkpt lat="47.366565" lon="0.720876"><ele>0.0</ele><name>Richemont</name><time>0</time></trkpt><trkpt lat="47.367675" lon="0.725595"><ele>0.0</ele><name>Cottier</name><time>0</time></trkpt><trkpt lat="47.368099" lon="0.728595"><ele>0.0</ele><name>St Avertin Mairie</name><time>0</time></trkpt><trkpt lat="47.368367" lon="0.730776"><ele>0.0</ele><name>St Avertin Centre</name><time>0</time></trkpt></trkseg></trk></gpx>