<?xml version="1.0" encoding="UTF-8" standalone="yes"?><gpx version="1.1" creator="FilBleu Scrapper"><metadata>Filbleu ligne TTRNav62</metadata><trk><trkseg><trkpt lat="47.396983" lon="0.740259"><ele>0.0</ele><name>Justices (Saint-Pierre-des-Corps)</name><time>0</time></trkpt><trkpt lat="47.394963" lon="0.741869"><ele>0.0</ele><name>LP Nadaud (Saint-Pierre-des-Corps)</name><time>0</time></trkpt><trkpt lat="47.393646" lon="0.738358"><ele>0.0</ele><name>Lénine (Saint-Pierre-des-Corps)</name><time>0</time></trkpt><trkpt lat="47.392332" lon="0.737655"><ele>0.0</ele><name>Stade (Saint-Pierre-des-Corps)</name><time>0</time></trkpt><trkpt lat="47.391864" lon="0.733721"><ele>0.0</ele><name>Déportés (Saint-Pierre-des-Corps)</name><time>0</time></trkpt><trkpt lat="47.390932" lon="0.72947"><ele>0.0</ele><name>Viala (Saint-Pierre-des-Corps)</name><time>0</time></trkpt><trkpt lat="47.390139" lon="0.726116"><ele>0.0</ele><name>Jean Moulin (Saint-Pierre-des-Corps)</name><time>0</time></trkpt><trkpt lat="47.386601" lon="0.722738"><ele>0.0</ele><name>St Pierre Gare (Saint-Pierre-des-Corps)</name><time>0</time></trkpt><trkpt lat="47.387881" lon="0.720328"><ele>0.0</ele><name>Stalingrad (Saint-Pierre-des-Corps)</name><time>0</time></trkpt><trkpt lat="47.388357" lon="0.719002"><ele>0.0</ele><name>Estienne d'Orves (Saint-Pierre-des-Corps)</name><time>0</time></trkpt><trkpt lat="47.388205" lon="0.717178"><ele>0.0</ele><name>Ateliers (Saint-Pierre-des-Corps)</name><time>0</time></trkpt><trkpt lat="47.387343" lon="0.714727"><ele>0.0</ele><name>Egalité (Saint-Pierre-des-Corps)</name><time>0</time></trkpt><trkpt lat="47.387358" lon="0.710607"><ele>0.0</ele><name>Semard (Saint-Pierre-des-Corps)</name><time>0</time></trkpt><trkpt lat="47.386538" lon="0.706737"><ele>0.0</ele><name>Pont du Milieu (Tours)</name><time>0</time></trkpt><trkpt lat="47.385771" lon="0.703382"><ele>0.0</ele><name>Deslandes (Tours)</name><time>0</time></trkpt><trkpt lat="47.385256" lon="0.700033"><ele>0.0</ele><name>Docteur Fournier (Tours)</name><time>0</time></trkpt><trkpt lat="47.387851" lon="0.697105"><ele>0.0</ele><name>Champ Girault (Tours)</name><time>0</time></trkpt><trkpt lat="47.389824" lon="0.693507"><ele>0.0</ele><name>gare de Tours (Tours)</name><time>0</time></trkpt><trkpt lat="47.389584" lon="0.688652"><ele>0.0</ele><name>Jean Jaurès (Tours)</name><time>0</time></trkpt><trkpt lat="47.386406" lon="0.690393"><ele>0.0</ele><name>Salengro (Tours)</name><time>0</time></trkpt><trkpt lat="47.383973" lon="0.691396"><ele>0.0</ele><name>Boisdenier (Tours)</name><time>0</time></trkpt><trkpt lat="47.380012" lon="0.693809"><ele>0.0</ele><name>Liberté (Tours)</name><time>0</time></trkpt><trkpt lat="47.37696" lon="0.694248"><ele>0.0</ele><name>Charcot (Tours)</name><time>0</time></trkpt><trkpt lat="47.373665" lon="0.695409"><ele>0.0</ele><name>Verdun (Tours)</name><time>0</time></trkpt><trkpt lat="47.367334" lon="0.698146"><ele>0.0</ele><name>Lac (Tours)</name><time>0</time></trkpt><trkpt lat="47.363786" lon="0.701751"><ele>0.0</ele><name>Beethoven (Tours)</name><time>0</time></trkpt><trkpt lat="47.364315" lon="0.705429"><ele>0.0</ele><name>Ecole Commerce (Tours)</name><time>0</time></trkpt><trkpt lat="47.366032" lon="0.708502"><ele>0.0</ele><name>Mozart (Tours)</name><time>0</time></trkpt><trkpt lat="47.367809" lon="0.708196"><ele>0.0</ele><name>D'Indy (Tours)</name><time>0</time></trkpt><trkpt lat="47.368731" lon="0.711108"><ele>0.0</ele><name>Stendhal (Tours)</name><time>0</time></trkpt><trkpt lat="47.367468" lon="0.713384"><ele>0.0</ele><name>Fontaines (Tours)</name><time>0</time></trkpt><trkpt lat="47.368703" lon="0.71932"><ele>0.0</ele><name>Granges Galand (Saint-Avertin)</name><time>0</time></trkpt><trkpt lat="47.366863" lon="0.720951"><ele>0.0</ele><name>Richemont (Saint-Avertin)</name><time>0</time></trkpt><trkpt lat="47.368022" lon="0.727961"><ele>0.0</ele><name>L'Atrium (Saint-Avertin)</name><time>0</time></trkpt><trkpt lat="47.368269" lon="0.730788"><ele>0.0</ele><name>Paul Doumer (Saint-Avertin)</name><time>0</time></trkpt></trkseg></trk></gpx>