<?xml version="1.0" encoding="UTF-8" standalone="yes"?><gpx version="1.1" creator="FilBleu Scrapper"><metadata>Filbleu ligne TTRNav95</metadata><trk><trkseg><trkpt lat="47.435809" lon="0.64019"><ele>0.0</ele><name>Val Choisille (La Membrolle-sur-Choisille)</name><time>0</time></trkpt><trkpt lat="47.43693" lon="0.637781"><ele>0.0</ele><name>Choisille (La Membrolle-sur-Choisille)</name><time>0</time></trkpt><trkpt lat="47.435754" lon="0.633071"><ele>0.0</ele><name>Castel (La Membrolle-sur-Choisille)</name><time>0</time></trkpt><trkpt lat="47.434782" lon="0.629688"><ele>0.0</ele><name>Billonnière (La Membrolle-sur-Choisille)</name><time>0</time></trkpt><trkpt lat="47.438637" lon="0.629419"><ele>0.0</ele><name>Rocailles (La Membrolle-sur-Choisille)</name><time>0</time></trkpt><trkpt lat="47.438738" lon="0.631975"><ele>0.0</ele><name>Aubrière (La Membrolle-sur-Choisille)</name><time>0</time></trkpt><trkpt lat="47.440342" lon="0.632726"><ele>0.0</ele><name>Maison Neuve (La Membrolle-sur-Choisille)</name><time>0</time></trkpt><trkpt lat="47.439368" lon="0.638426"><ele>0.0</ele><name>Le Lavoir (La Membrolle-sur-Choisille)</name><time>0</time></trkpt><trkpt lat="47.443025" lon="0.639297"><ele>0.0</ele><name>Croix Julia (La Membrolle-sur-Choisille)</name><time>0</time></trkpt><trkpt lat="47.448675" lon="0.644536"><ele>0.0</ele><name>Gué Andreau (Mettray)</name><time>0</time></trkpt><trkpt lat="47.451705" lon="0.644977"><ele>0.0</ele><name>Ragonnière (Mettray)</name><time>0</time></trkpt><trkpt lat="47.453092" lon="0.644767"><ele>0.0</ele><name>Manoir (Mettray)</name><time>0</time></trkpt><trkpt lat="47.454292" lon="0.646878"><ele>0.0</ele><name>Dolmen (Mettray)</name><time>0</time></trkpt><trkpt lat="47.452983" lon="0.649652"><ele>0.0</ele><name>Bourg de Mettray (Mettray)</name><time>0</time></trkpt><trkpt lat="47.452222" lon="0.651752"><ele>0.0</ele><name>Vieux Calvaire (Mettray)</name><time>0</time></trkpt><trkpt lat="47.448522" lon="0.651278"><ele>0.0</ele><name>Moulin Maillet (Mettray)</name><time>0</time></trkpt><trkpt lat="47.447717" lon="0.658108"><ele>0.0</ele><name>Artisans (Mettray)</name><time>0</time></trkpt><trkpt lat="47.445914" lon="0.661314"><ele>0.0</ele><name>Bagatelle (Mettray)</name><time>0</time></trkpt><trkpt lat="47.443751" lon="0.664784"><ele>0.0</ele><name>Ribellerie (Mettray)</name><time>0</time></trkpt><trkpt lat="47.440903" lon="0.672253"><ele>0.0</ele><name>Gatinière (Saint-Cyr-sur-Loire)</name><time>0</time></trkpt><trkpt lat="47.432787" lon="0.67376"><ele>0.0</ele><name>Fontaine de Mie (Mettray)</name><time>0</time></trkpt><trkpt lat="47.431005" lon="0.673106"><ele>0.0</ele><name>Petite Gironde (Saint-Cyr-sur-Loire)</name><time>0</time></trkpt><trkpt lat="47.429627" lon="0.680216"><ele>0.0</ele><name>Collège Montaigne (Tours)</name><time>0</time></trkpt><trkpt lat="47.427306" lon="0.690675"><ele>0.0</ele><name>LP Clouet (Tours)</name><time>0</time></trkpt><trkpt lat="47.429738" lon="0.690507"><ele>0.0</ele><name>Thalès (Tours)</name><time>0</time></trkpt><trkpt lat="47.432474" lon="0.686498"><ele>0.0</ele><name>Abbaye Gatines (Tours)</name><time>0</time></trkpt><trkpt lat="47.434317" lon="0.685433"><ele>0.0</ele><name>Lycée Choiseul (Tours)</name><time>0</time></trkpt></trkseg></trk></gpx>