<?xml version="1.0" encoding="UTF-8" standalone="yes"?><gpx version="1.1" creator="FilBleu Scrapper"><metadata>Filbleu ligne 08B</metadata><trk><trkseg><trkpt lat="47.413079" lon="0.672045"><ele>0.0</ele><name>Roux</name><time>0</time></trkpt><trkpt lat="47.41258" lon="0.667252"><ele>0.0</ele><name>Bergson</name><time>0</time></trkpt><trkpt lat="47.409715" lon="0.667309"><ele>0.0</ele><name>Cousseau</name><time>0</time></trkpt><trkpt lat="47.407576" lon="0.670563"><ele>0.0</ele><name>Fosses Boissées</name><time>0</time></trkpt><trkpt lat="47.404772" lon="0.669988"><ele>0.0</ele><name>Montjoie</name><time>0</time></trkpt><trkpt lat="47.40445" lon="0.668083"><ele>0.0</ele><name>Victor Hugo</name><time>0</time></trkpt><trkpt lat="47.406652" lon="0.666424"><ele>0.0</ele><name>St Exupery</name><time>0</time></trkpt><trkpt lat="47.407861" lon="0.67504"><ele>0.0</ele><name>Mailloux</name><time>0</time></trkpt><trkpt lat="47.40769" lon="0.676662"><ele>0.0</ele><name>Calmette</name><time>0</time></trkpt><trkpt lat="47.406781" lon="0.67567"><ele>0.0</ele><name>Mésangerie</name><time>0</time></trkpt><trkpt lat="47.403049" lon="0.677045"><ele>0.0</ele><name>Cèdres</name><time>0</time></trkpt><trkpt lat="47.400967" lon="0.678647"><ele>0.0</ele><name>Lebrun</name><time>0</time></trkpt><trkpt lat="47.400556" lon="0.678282"><ele>0.0</ele><name>Portillon</name><time>0</time></trkpt><trkpt lat="47.394687" lon="0.677821"><ele>0.0</ele><name>Tanneurs</name><time>0</time></trkpt><trkpt lat="47.392553" lon="0.679472"><ele>0.0</ele><name>Grand Marché</name><time>0</time></trkpt><trkpt lat="47.391089" lon="0.681577"><ele>0.0</ele><name>Halles</name><time>0</time></trkpt><trkpt lat="47.389803" lon="0.683797"><ele>0.0</ele><name>Béranger</name><time>0</time></trkpt><trkpt lat="47.389854" lon="0.688495"><ele>0.0</ele><name>Jean Jaurès</name><time>0</time></trkpt><trkpt lat="47.390745" lon="0.692803"><ele>0.0</ele><name>Gare Vinci</name><time>0</time></trkpt><trkpt lat="47.390016" lon="0.694038"><ele>0.0</ele><name>Gare de Tours</name><time>0</time></trkpt><trkpt lat="47.387877" lon="0.697051"><ele>0.0</ele><name>Champ Girault</name><time>0</time></trkpt><trkpt lat="47.385179" lon="0.700534"><ele>0.0</ele><name>Docteur Fournier</name><time>0</time></trkpt><trkpt lat="47.385767" lon="0.703382"><ele>0.0</ele><name>Deslandes</name><time>0</time></trkpt><trkpt lat="47.386307" lon="0.705972"><ele>0.0</ele><name>Pont du Milieu</name><time>0</time></trkpt><trkpt lat="47.387357" lon="0.7106"><ele>0.0</ele><name>Semard</name><time>0</time></trkpt><trkpt lat="47.389103" lon="0.709957"><ele>0.0</ele><name>Audenet</name><time>0</time></trkpt><trkpt lat="47.389505" lon="0.712303"><ele>0.0</ele><name>Peri</name><time>0</time></trkpt><trkpt lat="47.387343" lon="0.714727"><ele>0.0</ele><name>Liberté</name><time>0</time></trkpt><trkpt lat="47.388205" lon="0.717178"><ele>0.0</ele><name>Ateliers</name><time>0</time></trkpt><trkpt lat="47.388973" lon="0.716433"><ele>0.0</ele><name>Grand Cour</name><time>0</time></trkpt><trkpt lat="47.38968" lon="0.717743"><ele>0.0</ele><name>Thorez</name><time>0</time></trkpt><trkpt lat="47.388384" lon="0.718988"><ele>0.0</ele><name>Estienne d'Orves</name><time>0</time></trkpt><trkpt lat="47.388367" lon="0.721671"><ele>0.0</ele><name>Cathelas</name><time>0</time></trkpt><trkpt lat="47.388424" lon="0.725425"><ele>0.0</ele><name>Molière</name><time>0</time></trkpt><trkpt lat="47.39007" lon="0.726356"><ele>0.0</ele><name>Jean Moulin</name><time>0</time></trkpt><trkpt lat="47.390932" lon="0.72947"><ele>0.0</ele><name>Viala</name><time>0</time></trkpt><trkpt lat="47.391864" lon="0.733721"><ele>0.0</ele><name>Déportés</name><time>0</time></trkpt><trkpt lat="47.392327" lon="0.737649"><ele>0.0</ele><name>Stade</name><time>0</time></trkpt><trkpt lat="47.393642" lon="0.738358"><ele>0.0</ele><name>Lenine</name><time>0</time></trkpt><trkpt lat="47.39473" lon="0.741876"><ele>0.0</ele><name>LP Nadaud</name><time>0</time></trkpt><trkpt lat="47.396983" lon="0.740259"><ele>0.0</ele><name>St Pierre Justices</name><time>0</time></trkpt></trkseg></trk></gpx>