<?xml version="1.0" encoding="UTF-8" standalone="yes"?><gpx version="1.1" creator="FilBleu Scrapper"><metadata>Filbleu ligne TTR_Nav93</metadata><trk><trkseg><trkpt lat="47.352965" lon="0.717147"><ele>0.0</ele><name>Rosnay (Saint-Avertin)</name><time>0</time></trkpt><trkpt lat="47.354516" lon="0.721919"><ele>0.0</ele><name>Jules Romains (Saint-Avertin)</name><time>0</time></trkpt><trkpt lat="47.355725" lon="0.724715"><ele>0.0</ele><name>De Gaulle (Saint-Avertin)</name><time>0</time></trkpt><trkpt lat="47.35643" lon="0.728838"><ele>0.0</ele><name>Croix Perray (Saint-Avertin)</name><time>0</time></trkpt><trkpt lat="47.357455" lon="0.735215"><ele>0.0</ele><name>Pierres Plates (Saint-Avertin)</name><time>0</time></trkpt><trkpt lat="47.357943" lon="0.737372"><ele>0.0</ele><name>Camusière (Saint-Avertin)</name><time>0</time></trkpt><trkpt lat="47.358671" lon="0.740581"><ele>0.0</ele><name>Apollinaire (Saint-Avertin)</name><time>0</time></trkpt><trkpt lat="47.36141" lon="0.742776"><ele>0.0</ele><name>Aragon (Saint-Avertin)</name><time>0</time></trkpt><trkpt lat="47.363268" lon="0.741185"><ele>0.0</ele><name>Pinterie (Saint-Avertin)</name><time>0</time></trkpt><trkpt lat="47.36193" lon="0.738736"><ele>0.0</ele><name>Oiselet (Saint-Avertin)</name><time>0</time></trkpt><trkpt lat="47.362664" lon="0.735231"><ele>0.0</ele><name>Château Fraisier (Saint-Avertin)</name><time>0</time></trkpt><trkpt lat="47.364563" lon="0.736578"><ele>0.0</ele><name>Alsace (Saint-Avertin)</name><time>0</time></trkpt><trkpt lat="47.366614" lon="0.739112"><ele>0.0</ele><name>St Michel (Saint-Avertin)</name><time>0</time></trkpt><trkpt lat="47.368335" lon="0.731552"><ele>0.0</ele><name>Paul Doumer (Saint-Avertin)</name><time>0</time></trkpt><trkpt lat="47.368089" lon="0.728685"><ele>0.0</ele><name>Nouvel Atrium (Saint-Avertin)</name><time>0</time></trkpt><trkpt lat="47.367082" lon="0.726213"><ele>0.0</ele><name>Cottier (Saint-Avertin)</name><time>0</time></trkpt><trkpt lat="47.366632" lon="0.721645"><ele>0.0</ele><name>Richemont (Saint-Avertin)</name><time>0</time></trkpt><trkpt lat="47.368769" lon="0.720084"><ele>0.0</ele><name>Granges Galand (Saint-Avertin)</name><time>0</time></trkpt><trkpt lat="47.369919" lon="0.719294"><ele>0.0</ele><name>L'Essart (Saint-Avertin)</name><time>0</time></trkpt><trkpt lat="47.37456" lon="0.726305"><ele>0.0</ele><name>Aviron (Tours)</name><time>0</time></trkpt><trkpt lat="47.37721" lon="0.733099"><ele>0.0</ele><name>Becquerel (Saint-Pierre-des-Corps)</name><time>0</time></trkpt></trkseg></trk><trk><trkseg><trkpt lat="47.37721" lon="0.733099"><ele>0.0</ele><name>Becquerel (Saint-Pierre-des-Corps)</name><time>0</time></trkpt><trkpt lat="47.37456" lon="0.726305"><ele>0.0</ele><name>Aviron (Tours)</name><time>0</time></trkpt><trkpt lat="47.369919" lon="0.719294"><ele>0.0</ele><name>L'Essart (Saint-Avertin)</name><time>0</time></trkpt><trkpt lat="47.368769" lon="0.720084"><ele>0.0</ele><name>Granges Galand (Saint-Avertin)</name><time>0</time></trkpt><trkpt lat="47.366632" lon="0.721645"><ele>0.0</ele><name>Richemont (Saint-Avertin)</name><time>0</time></trkpt><trkpt lat="47.368089" lon="0.728685"><ele>0.0</ele><name>Nouvel Atrium (Saint-Avertin)</name><time>0</time></trkpt><trkpt lat="47.368335" lon="0.731552"><ele>0.0</ele><name>Paul Doumer (Saint-Avertin)</name><time>0</time></trkpt><trkpt lat="47.366614" lon="0.739112"><ele>0.0</ele><name>St Michel (Saint-Avertin)</name><time>0</time></trkpt><trkpt lat="47.364563" lon="0.736578"><ele>0.0</ele><name>Alsace (Saint-Avertin)</name><time>0</time></trkpt><trkpt lat="47.362664" lon="0.735231"><ele>0.0</ele><name>Château Fraisier (Saint-Avertin)</name><time>0</time></trkpt><trkpt lat="47.36193" lon="0.738736"><ele>0.0</ele><name>Oiselet (Saint-Avertin)</name><time>0</time></trkpt><trkpt lat="47.363268" lon="0.741185"><ele>0.0</ele><name>Pinterie (Saint-Avertin)</name><time>0</time></trkpt><trkpt lat="47.36141" lon="0.742776"><ele>0.0</ele><name>Aragon (Saint-Avertin)</name><time>0</time></trkpt><trkpt lat="47.358671" lon="0.740581"><ele>0.0</ele><name>Apollinaire (Saint-Avertin)</name><time>0</time></trkpt><trkpt lat="47.357943" lon="0.737372"><ele>0.0</ele><name>Camusière (Saint-Avertin)</name><time>0</time></trkpt><trkpt lat="47.357455" lon="0.735215"><ele>0.0</ele><name>Pierres Plates (Saint-Avertin)</name><time>0</time></trkpt><trkpt lat="47.35643" lon="0.728838"><ele>0.0</ele><name>Croix Perray (Saint-Avertin)</name><time>0</time></trkpt><trkpt lat="47.355725" lon="0.724715"><ele>0.0</ele><name>De Gaulle (Saint-Avertin)</name><time>0</time></trkpt><trkpt lat="47.354516" lon="0.721919"><ele>0.0</ele><name>Jules Romains (Saint-Avertin)</name><time>0</time></trkpt><trkpt lat="47.352965" lon="0.717147"><ele>0.0</ele><name>Rosnay (Saint-Avertin)</name><time>0</time></trkpt></trkseg></trk></gpx>