<?xml version="1.0" encoding="UTF-8" standalone="yes"?><gpx version="1.1" creator="FilBleu Scrapper"><metadata>Filbleu ligne 14</metadata><trk><trkseg><trkpt lat="47.354239" lon="0.703592"><ele>0.0</ele><name>Bonamy</name><time>0</time></trkpt><trkpt lat="47.353653" lon="0.704788"><ele>0.0</ele><name>Dumont-d'Urville</name><time>0</time></trkpt><trkpt lat="47.352661" lon="0.704289"><ele>0.0</ele><name>La Perouse</name><time>0</time></trkpt><trkpt lat="47.350816" lon="0.703313"><ele>0.0</ele><name>Parc Grandmont</name><time>0</time></trkpt><trkpt lat="47.355845" lon="0.701716"><ele>0.0</ele><name>Arsonval</name><time>0</time></trkpt><trkpt lat="47.357182" lon="0.702396"><ele>0.0</ele><name>Faculté de Grandmont</name><time>0</time></trkpt><trkpt lat="47.355575" lon="0.698441"><ele>0.0</ele><name>Bd de Chinon</name><time>0</time></trkpt><trkpt lat="47.353551" lon="0.691843"><ele>0.0</ele><name>Jumeaux</name><time>0</time></trkpt><trkpt lat="47.351733" lon="0.686322"><ele>0.0</ele><name>Quatre Bornes</name><time>0</time></trkpt><trkpt lat="47.351358" lon="0.681346"><ele>0.0</ele><name>Montreuil Bellay</name><time>0</time></trkpt><trkpt lat="47.350941" lon="0.67889"><ele>0.0</ele><name>Bruère</name><time>0</time></trkpt><trkpt lat="47.351159" lon="0.67287"><ele>0.0</ele><name>Morier</name><time>0</time></trkpt><trkpt lat="47.351188" lon="0.669657"><ele>0.0</ele><name>Bugeaud</name><time>0</time></trkpt><trkpt lat="47.351008" lon="0.666361"><ele>0.0</ele><name>Martyrs</name><time>0</time></trkpt><trkpt lat="47.35415" lon="0.667132"><ele>0.0</ele><name>Joué Gare</name><time>0</time></trkpt></trkseg></trk></gpx>