<?xml version="1.0" encoding="UTF-8" standalone="yes"?><gpx version="1.1" creator="FilBleu Scrapper"><metadata>Filbleu ligne TTRNav64</metadata><trk><trkseg><trkpt lat="47.396428" lon="0.685924"><ele>0.0</ele><name>Anatole France (Tours)</name><time>0</time></trkpt><trkpt lat="47.397304" lon="0.689328"><ele>0.0</ele><name>Voltaire (Tours)</name><time>0</time></trkpt><trkpt lat="47.397508" lon="0.692886"><ele>0.0</ele><name>Château de Tours (Tours)</name><time>0</time></trkpt><trkpt lat="47.397568" lon="0.697787"><ele>0.0</ele><name>Quai Malraux (Tours)</name><time>0</time></trkpt><trkpt lat="47.403042" lon="0.705053"><ele>0.0</ele><name>St Joseph (Tours)</name><time>0</time></trkpt><trkpt lat="47.403852" lon="0.710833"><ele>0.0</ele><name>Place Rousseau (Tours)</name><time>0</time></trkpt><trkpt lat="47.406156" lon="0.712154"><ele>0.0</ele><name>Wedells (Tours)</name><time>0</time></trkpt><trkpt lat="47.407842" lon="0.714926"><ele>0.0</ele><name>La Borde (Tours)</name><time>0</time></trkpt><trkpt lat="47.409519" lon="0.713298"><ele>0.0</ele><name>St Libert (Tours)</name><time>0</time></trkpt><trkpt lat="47.408605" lon="0.710966"><ele>0.0</ele><name>Monsoudun (Tours)</name><time>0</time></trkpt><trkpt lat="47.409039" lon="0.707958"><ele>0.0</ele><name>Belle Isle (Tours)</name><time>0</time></trkpt><trkpt lat="47.410397" lon="0.706631"><ele>0.0</ele><name>Lurçat (Tours)</name><time>0</time></trkpt><trkpt lat="47.412136" lon="0.708062"><ele>0.0</ele><name>Tastes (Tours)</name><time>0</time></trkpt><trkpt lat="47.415261" lon="0.708948"><ele>0.0</ele><name>Carcassonne (Tours)</name><time>0</time></trkpt><trkpt lat="47.415915" lon="0.711274"><ele>0.0</ele><name>Giraudoux (Tours)</name><time>0</time></trkpt><trkpt lat="47.418612" lon="0.711775"><ele>0.0</ele><name>Vieux Noyer (Tours)</name><time>0</time></trkpt><trkpt lat="47.418897" lon="0.706477"><ele>0.0</ele><name>Chambrerie (Tours)</name><time>0</time></trkpt><trkpt lat="47.418893" lon="0.70364"><ele>0.0</ele><name>Collège Ronsard (Tours)</name><time>0</time></trkpt><trkpt lat="47.418826" lon="0.698897"><ele>0.0</ele><name>Pas Notre Dame (Tours)</name><time>0</time></trkpt><trkpt lat="47.41863" lon="0.695205"><ele>0.0</ele><name>Mayer (Tours)</name><time>0</time></trkpt><trkpt lat="47.419614" lon="0.693544"><ele>0.0</ele><name>Daguerre (Tours)</name><time>0</time></trkpt><trkpt lat="47.422166" lon="0.696475"><ele>0.0</ele><name>Niepce (Tours)</name><time>0</time></trkpt><trkpt lat="47.424759" lon="0.69727"><ele>0.0</ele><name>Luxembourg (Tours)</name><time>0</time></trkpt><trkpt lat="47.42753" lon="0.697238"><ele>0.0</ele><name>Petite Arche (Tours)</name><time>0</time></trkpt><trkpt lat="47.427311" lon="0.690682"><ele>0.0</ele><name>LP Clouet (Tours)</name><time>0</time></trkpt><trkpt lat="47.426264" lon="0.685398"><ele>0.0</ele><name>Loing (Tours)</name><time>0</time></trkpt><trkpt lat="47.425439" lon="0.68309"><ele>0.0</ele><name>Charleroi (Tours)</name><time>0</time></trkpt><trkpt lat="47.422192" lon="0.683138"><ele>0.0</ele><name>Beffroi (Tours)</name><time>0</time></trkpt><trkpt lat="47.422289" lon="0.68051"><ele>0.0</ele><name>Europe (Tours)</name><time>0</time></trkpt><trkpt lat="47.422439" lon="0.675879"><ele>0.0</ele><name>LP Eiffel (Tours)</name><time>0</time></trkpt><trkpt lat="47.423953" lon="0.674148"><ele>0.0</ele><name>Augereau (Tours)</name><time>0</time></trkpt><trkpt lat="47.423167" lon="0.668299"><ele>0.0</ele><name>Ampère (Saint-Cyr-sur-Loire)</name><time>0</time></trkpt><trkpt lat="47.42321" lon="0.666336"><ele>0.0</ele><name>Condorcet (Saint-Cyr-sur-Loire)</name><time>0</time></trkpt><trkpt lat="47.41991" lon="0.663947"><ele>0.0</ele><name>Charentais (Saint-Cyr-sur-Loire)</name><time>0</time></trkpt><trkpt lat="47.418585" lon="0.664426"><ele>0.0</ele><name>Lande (Saint-Cyr-sur-Loire)</name><time>0</time></trkpt><trkpt lat="47.415558" lon="0.668471"><ele>0.0</ele><name>Guynemer (Saint-Cyr-sur-Loire)</name><time>0</time></trkpt><trkpt lat="47.413328" lon="0.671682"><ele>0.0</ele><name>Roux (Saint-Cyr-sur-Loire)</name><time>0</time></trkpt><trkpt lat="47.411975" lon="0.674614"><ele>0.0</ele><name>Engerand (Saint-Cyr-sur-Loire)</name><time>0</time></trkpt><trkpt lat="47.410675" lon="0.677424"><ele>0.0</ele><name>Portail d'Ormeau (Saint-Cyr-sur-Loire)</name><time>0</time></trkpt><trkpt lat="47.408923" lon="0.680739"><ele>0.0</ele><name>Tranchée (Tours)</name><time>0</time></trkpt></trkseg></trk><trk><trkseg><trkpt lat="47.408923" lon="0.680739"><ele>0.0</ele><name>Tranchée (Tours)</name><time>0</time></trkpt><trkpt lat="47.410675" lon="0.677424"><ele>0.0</ele><name>Portail d'Ormeau (Saint-Cyr-sur-Loire)</name><time>0</time></trkpt><trkpt lat="47.411975" lon="0.674614"><ele>0.0</ele><name>Engerand (Saint-Cyr-sur-Loire)</name><time>0</time></trkpt><trkpt lat="47.413328" lon="0.671682"><ele>0.0</ele><name>Roux (Saint-Cyr-sur-Loire)</name><time>0</time></trkpt><trkpt lat="47.415558" lon="0.668471"><ele>0.0</ele><name>Guynemer (Saint-Cyr-sur-Loire)</name><time>0</time></trkpt><trkpt lat="47.418585" lon="0.664426"><ele>0.0</ele><name>Lande (Saint-Cyr-sur-Loire)</name><time>0</time></trkpt><trkpt lat="47.41991" lon="0.663947"><ele>0.0</ele><name>Charentais (Saint-Cyr-sur-Loire)</name><time>0</time></trkpt><trkpt lat="47.42321" lon="0.666336"><ele>0.0</ele><name>Condorcet (Saint-Cyr-sur-Loire)</name><time>0</time></trkpt><trkpt lat="47.423167" lon="0.668299"><ele>0.0</ele><name>Ampère (Saint-Cyr-sur-Loire)</name><time>0</time></trkpt><trkpt lat="47.423953" lon="0.674148"><ele>0.0</ele><name>Augereau (Tours)</name><time>0</time></trkpt><trkpt lat="47.422439" lon="0.675879"><ele>0.0</ele><name>LP Eiffel (Tours)</name><time>0</time></trkpt><trkpt lat="47.422289" lon="0.68051"><ele>0.0</ele><name>Europe (Tours)</name><time>0</time></trkpt><trkpt lat="47.422192" lon="0.683138"><ele>0.0</ele><name>Beffroi (Tours)</name><time>0</time></trkpt><trkpt lat="47.425439" lon="0.68309"><ele>0.0</ele><name>Charleroi (Tours)</name><time>0</time></trkpt><trkpt lat="47.426264" lon="0.685398"><ele>0.0</ele><name>Loing (Tours)</name><time>0</time></trkpt><trkpt lat="47.427311" lon="0.690682"><ele>0.0</ele><name>LP Clouet (Tours)</name><time>0</time></trkpt><trkpt lat="47.42753" lon="0.697238"><ele>0.0</ele><name>Petite Arche (Tours)</name><time>0</time></trkpt><trkpt lat="47.424759" lon="0.69727"><ele>0.0</ele><name>Luxembourg (Tours)</name><time>0</time></trkpt><trkpt lat="47.42372" lon="0.69758"><ele>0.0</ele><name>Marne (Tours)</name><time>0</time></trkpt><trkpt lat="47.422166" lon="0.696475"><ele>0.0</ele><name>Niepce (Tours)</name><time>0</time></trkpt><trkpt lat="47.419614" lon="0.693544"><ele>0.0</ele><name>Daguerre (Tours)</name><time>0</time></trkpt><trkpt lat="47.41863" lon="0.695205"><ele>0.0</ele><name>Mayer (Tours)</name><time>0</time></trkpt><trkpt lat="47.418826" lon="0.698897"><ele>0.0</ele><name>Pas Notre Dame (Tours)</name><time>0</time></trkpt><trkpt lat="47.418893" lon="0.70364"><ele>0.0</ele><name>Collège Ronsard (Tours)</name><time>0</time></trkpt><trkpt lat="47.418897" lon="0.706477"><ele>0.0</ele><name>Chambrerie (Tours)</name><time>0</time></trkpt><trkpt lat="47.418612" lon="0.711775"><ele>0.0</ele><name>Vieux Noyer (Tours)</name><time>0</time></trkpt><trkpt lat="47.415915" lon="0.711274"><ele>0.0</ele><name>Giraudoux (Tours)</name><time>0</time></trkpt><trkpt lat="47.415261" lon="0.708948"><ele>0.0</ele><name>Carcassonne (Tours)</name><time>0</time></trkpt><trkpt lat="47.412136" lon="0.708062"><ele>0.0</ele><name>Tastes (Tours)</name><time>0</time></trkpt><trkpt lat="47.410397" lon="0.706631"><ele>0.0</ele><name>Lurçat (Tours)</name><time>0</time></trkpt><trkpt lat="47.409039" lon="0.707958"><ele>0.0</ele><name>Belle Isle (Tours)</name><time>0</time></trkpt><trkpt lat="47.408605" lon="0.710966"><ele>0.0</ele><name>Monsoudun (Tours)</name><time>0</time></trkpt><trkpt lat="47.409519" lon="0.713298"><ele>0.0</ele><name>St Libert (Tours)</name><time>0</time></trkpt><trkpt lat="47.407842" lon="0.714926"><ele>0.0</ele><name>La Borde (Tours)</name><time>0</time></trkpt><trkpt lat="47.406156" lon="0.712154"><ele>0.0</ele><name>Wedells (Tours)</name><time>0</time></trkpt><trkpt lat="47.403852" lon="0.710833"><ele>0.0</ele><name>Place Rousseau (Tours)</name><time>0</time></trkpt><trkpt lat="47.403042" lon="0.705053"><ele>0.0</ele><name>St Joseph (Tours)</name><time>0</time></trkpt><trkpt lat="47.403264" lon="0.702303"><ele>0.0</ele><name>Golf (Tours)</name><time>0</time></trkpt><trkpt lat="47.397568" lon="0.697787"><ele>0.0</ele><name>Quai Malraux (Tours)</name><time>0</time></trkpt><trkpt lat="47.397508" lon="0.692886"><ele>0.0</ele><name>Château de Tours (Tours)</name><time>0</time></trkpt><trkpt lat="47.397304" lon="0.689328"><ele>0.0</ele><name>Voltaire (Tours)</name><time>0</time></trkpt><trkpt lat="47.396428" lon="0.685924"><ele>0.0</ele><name>Anatole France (Tours)</name><time>0</time></trkpt></trkseg></trk></gpx>