<?xml version="1.0" encoding="UTF-8" standalone="yes"?><gpx version="1.1" creator="FilBleu Scrapper"><metadata>Filbleu ligne 04B</metadata><trk><trkseg><trkpt lat="47.396499" lon="0.685875"><ele>0.0</ele><name>Anatole France</name><time>0</time></trkpt><trkpt lat="47.397322" lon="0.689295"><ele>0.0</ele><name>Voltaire</name><time>0</time></trkpt><trkpt lat="47.39748" lon="0.692847"><ele>0.0</ele><name>Château de Tours</name><time>0</time></trkpt><trkpt lat="47.397492" lon="0.698523"><ele>0.0</ele><name>Mirabeau</name><time>0</time></trkpt><trkpt lat="47.3955" lon="0.699759"><ele>0.0</ele><name>Ursulines</name><time>0</time></trkpt><trkpt lat="47.392753" lon="0.700201"><ele>0.0</ele><name>Traversiere</name><time>0</time></trkpt><trkpt lat="47.392228" lon="0.70125"><ele>0.0</ele><name>Rempart</name><time>0</time></trkpt><trkpt lat="47.389827" lon="0.702635"><ele>0.0</ele><name>Canal</name><time>0</time></trkpt><trkpt lat="47.387262" lon="0.703217"><ele>0.0</ele><name>Place Velpeau</name><time>0</time></trkpt><trkpt lat="47.385622" lon="0.703678"><ele>0.0</ele><name>La Fuye</name><time>0</time></trkpt><trkpt lat="47.384025" lon="0.703992"><ele>0.0</ele><name>Florian</name><time>0</time></trkpt><trkpt lat="47.381709" lon="0.70499"><ele>0.0</ele><name>Rotonde</name><time>0</time></trkpt><trkpt lat="47.381801" lon="0.705758"><ele>0.0</ele><name>Jolivet</name><time>0</time></trkpt><trkpt lat="47.381308" lon="0.702088"><ele>0.0</ele><name>Mermoz</name><time>0</time></trkpt><trkpt lat="47.379327" lon="0.699397"><ele>0.0</ele><name>St Paul</name><time>0</time></trkpt><trkpt lat="47.379563" lon="0.69271"><ele>0.0</ele><name>Place de la Liberté</name><time>0</time></trkpt><trkpt lat="47.380468" lon="0.688212"><ele>0.0</ele><name>Carnot</name><time>0</time></trkpt><trkpt lat="47.381134" lon="0.684747"><ele>0.0</ele><name>Duplessis</name><time>0</time></trkpt><trkpt lat="47.381528" lon="0.681761"><ele>0.0</ele><name>Boylesve</name><time>0</time></trkpt><trkpt lat="47.379617" lon="0.680267"><ele>0.0</ele><name>Strasbourg</name><time>0</time></trkpt><trkpt lat="47.37998" lon="0.676885"><ele>0.0</ele><name>Général Renault</name><time>0</time></trkpt><trkpt lat="47.379996" lon="0.671274"><ele>0.0</ele><name>Maryse Bastié</name><time>0</time></trkpt><trkpt lat="47.381384" lon="0.668466"><ele>0.0</ele><name>St François</name><time>0</time></trkpt><trkpt lat="47.384283" lon="0.667968"><ele>0.0</ele><name>Tonnellé</name><time>0</time></trkpt><trkpt lat="47.387477" lon="0.667163"><ele>0.0</ele><name>Bretonneau</name><time>0</time></trkpt><trkpt lat="47.390208" lon="0.668012"><ele>0.0</ele><name>Desmoulins</name><time>0</time></trkpt><trkpt lat="47.391781" lon="0.668075"><ele>0.0</ele><name>Docteur Chaumier</name><time>0</time></trkpt><trkpt lat="47.393578" lon="0.669771"><ele>0.0</ele><name>LP Bayet</name><time>0</time></trkpt><trkpt lat="47.393644" lon="0.671853"><ele>0.0</ele><name>Boyer</name><time>0</time></trkpt><trkpt lat="47.394908" lon="0.675109"><ele>0.0</ele><name>Dames Blanches</name><time>0</time></trkpt><trkpt lat="47.39587" lon="0.680568"><ele>0.0</ele><name>Faculté des Tanneurs</name><time>0</time></trkpt></trkseg></trk></gpx>