<?xml version="1.0" encoding="UTF-8" standalone="yes"?><gpx version="1.1" creator="FilBleu Scrapper"><metadata>Filbleu ligne TTR_Nav94</metadata><trk><trkseg><trkpt lat="47.43588" lon="0.640958"><ele>0.0</ele><name>Val Choisille (La Membrolle-sur-Choisille)</name><time>0</time></trkpt><trkpt lat="47.436997" lon="0.638548"><ele>0.0</ele><name>Choisille (La Membrolle-sur-Choisille)</name><time>0</time></trkpt><trkpt lat="47.435821" lon="0.633839"><ele>0.0</ele><name>Castel (La Membrolle-sur-Choisille)</name><time>0</time></trkpt><trkpt lat="47.434853" lon="0.630462"><ele>0.0</ele><name>Billonnière (La Membrolle-sur-Choisille)</name><time>0</time></trkpt><trkpt lat="47.438709" lon="0.630193"><ele>0.0</ele><name>Rocailles (La Membrolle-sur-Choisille)</name><time>0</time></trkpt><trkpt lat="47.43881" lon="0.632749"><ele>0.0</ele><name>Aubrière (La Membrolle-sur-Choisille)</name><time>0</time></trkpt><trkpt lat="47.440413" lon="0.633493"><ele>0.0</ele><name>Maison Neuve (La Membrolle-sur-Choisille)</name><time>0</time></trkpt><trkpt lat="47.439435" lon="0.6392"><ele>0.0</ele><name>Lavoir (La Membrolle-sur-Choisille)</name><time>0</time></trkpt><trkpt lat="47.443092" lon="0.640065"><ele>0.0</ele><name>Croix Julia (La Membrolle-sur-Choisille)</name><time>0</time></trkpt><trkpt lat="47.448747" lon="0.64531"><ele>0.0</ele><name>Gué Andreau (Mettray)</name><time>0</time></trkpt><trkpt lat="47.451776" lon="0.645744"><ele>0.0</ele><name>Ragonnière (Mettray)</name><time>0</time></trkpt><trkpt lat="47.453159" lon="0.645541"><ele>0.0</ele><name>Manoir (Mettray)</name><time>0</time></trkpt><trkpt lat="47.454359" lon="0.647652"><ele>0.0</ele><name>Dolmen (Mettray)</name><time>0</time></trkpt><trkpt lat="47.45305" lon="0.650425"><ele>0.0</ele><name>Bourg de Mettray (Mettray)</name><time>0</time></trkpt><trkpt lat="47.452289" lon="0.652519"><ele>0.0</ele><name>Vieux Calvaire (Mettray)</name><time>0</time></trkpt><trkpt lat="47.45305" lon="0.650425"><ele>0.0</ele><name>Bourg de Mettray (Mettray)</name><time>0</time></trkpt><trkpt lat="47.454359" lon="0.647652"><ele>0.0</ele><name>Dolmen (Mettray)</name><time>0</time></trkpt><trkpt lat="47.453159" lon="0.645541"><ele>0.0</ele><name>Manoir (Mettray)</name><time>0</time></trkpt><trkpt lat="47.451776" lon="0.645744"><ele>0.0</ele><name>Ragonnière (Mettray)</name><time>0</time></trkpt><trkpt lat="47.448747" lon="0.64531"><ele>0.0</ele><name>Gué Andreau (Mettray)</name><time>0</time></trkpt><trkpt lat="47.448593" lon="0.652052"><ele>0.0</ele><name>Moulin Maillet (Mettray)</name><time>0</time></trkpt><trkpt lat="47.447784" lon="0.658881"><ele>0.0</ele><name>Artisans (Mettray)</name><time>0</time></trkpt><trkpt lat="47.445986" lon="0.662081"><ele>0.0</ele><name>Bagatelle (Mettray)</name><time>0</time></trkpt><trkpt lat="47.443822" lon="0.665557"><ele>0.0</ele><name>Ribellerie (Mettray)</name><time>0</time></trkpt><trkpt lat="47.44097" lon="0.67302"><ele>0.0</ele><name>Gatinière (Saint-Cyr-sur-Loire)</name><time>0</time></trkpt><trkpt lat="47.432858" lon="0.674532"><ele>0.0</ele><name>Fontaine de Mie (Tours)</name><time>0</time></trkpt><trkpt lat="47.430682" lon="0.697988"><ele>0.0</ele><name>D'Alembert (Tours)</name><time>0</time></trkpt><trkpt lat="47.428403" lon="0.701571"><ele>0.0</ele><name>Torricelli (Tours)</name><time>0</time></trkpt><trkpt lat="47.422773" lon="0.706847"><ele>0.0</ele><name>Lycée Vaucanson (Tours)</name><time>0</time></trkpt><trkpt lat="47.434384" lon="0.686206"><ele>0.0</ele><name>Lycée Choiseul (Tours)</name><time>0</time></trkpt></trkseg></trk><trk><trkseg><trkpt lat="47.422773" lon="0.706847"><ele>0.0</ele><name>Lycée Vaucanson (Tours)</name><time>0</time></trkpt><trkpt lat="47.428403" lon="0.701571"><ele>0.0</ele><name>Torricelli (Tours)</name><time>0</time></trkpt><trkpt lat="47.430682" lon="0.697988"><ele>0.0</ele><name>D'Alembert (Tours)</name><time>0</time></trkpt><trkpt lat="47.434384" lon="0.686206"><ele>0.0</ele><name>Lycée Choiseul (Tours)</name><time>0</time></trkpt><trkpt lat="47.436501" lon="0.683276"><ele>0.0</ele><name>Lecotte (Tours)</name><time>0</time></trkpt><trkpt lat="47.435029" lon="0.680338"><ele>0.0</ele><name>Tavant (Tours)</name><time>0</time></trkpt><trkpt lat="47.431401" lon="0.679589"><ele>0.0</ele><name>Bois Aubry (Tours)</name><time>0</time></trkpt><trkpt lat="47.431076" lon="0.673872"><ele>0.0</ele><name>Petite Gironde (Tours)</name><time>0</time></trkpt><trkpt lat="47.432858" lon="0.674532"><ele>0.0</ele><name>Fontaine de Mie (Tours)</name><time>0</time></trkpt><trkpt lat="47.44097" lon="0.67302"><ele>0.0</ele><name>Gatinière (Saint-Cyr-sur-Loire)</name><time>0</time></trkpt><trkpt lat="47.443822" lon="0.665557"><ele>0.0</ele><name>Ribellerie (Mettray)</name><time>0</time></trkpt><trkpt lat="47.445986" lon="0.662081"><ele>0.0</ele><name>Bagatelle (Mettray)</name><time>0</time></trkpt><trkpt lat="47.447784" lon="0.658881"><ele>0.0</ele><name>Artisans (Mettray)</name><time>0</time></trkpt><trkpt lat="47.448593" lon="0.652052"><ele>0.0</ele><name>Moulin Maillet (Mettray)</name><time>0</time></trkpt><trkpt lat="47.448747" lon="0.64531"><ele>0.0</ele><name>Gué Andreau (Mettray)</name><time>0</time></trkpt><trkpt lat="47.451776" lon="0.645744"><ele>0.0</ele><name>Ragonnière (Mettray)</name><time>0</time></trkpt><trkpt lat="47.453159" lon="0.645541"><ele>0.0</ele><name>Manoir (Mettray)</name><time>0</time></trkpt><trkpt lat="47.454359" lon="0.647652"><ele>0.0</ele><name>Dolmen (Mettray)</name><time>0</time></trkpt><trkpt lat="47.45305" lon="0.650425"><ele>0.0</ele><name>Bourg de Mettray (Mettray)</name><time>0</time></trkpt><trkpt lat="47.452289" lon="0.652519"><ele>0.0</ele><name>Vieux Calvaire (Mettray)</name><time>0</time></trkpt><trkpt lat="47.45305" lon="0.650425"><ele>0.0</ele><name>Bourg de Mettray (Mettray)</name><time>0</time></trkpt><trkpt lat="47.454359" lon="0.647652"><ele>0.0</ele><name>Dolmen (Mettray)</name><time>0</time></trkpt><trkpt lat="47.453159" lon="0.645541"><ele>0.0</ele><name>Manoir (Mettray)</name><time>0</time></trkpt><trkpt lat="47.451776" lon="0.645744"><ele>0.0</ele><name>Ragonnière (Mettray)</name><time>0</time></trkpt><trkpt lat="47.448747" lon="0.64531"><ele>0.0</ele><name>Gué Andreau (Mettray)</name><time>0</time></trkpt><trkpt lat="47.443092" lon="0.640065"><ele>0.0</ele><name>Croix Julia (La Membrolle-sur-Choisille)</name><time>0</time></trkpt><trkpt lat="47.439435" lon="0.6392"><ele>0.0</ele><name>Lavoir (La Membrolle-sur-Choisille)</name><time>0</time></trkpt><trkpt lat="47.440413" lon="0.633493"><ele>0.0</ele><name>Maison Neuve (La Membrolle-sur-Choisille)</name><time>0</time></trkpt><trkpt lat="47.43881" lon="0.632749"><ele>0.0</ele><name>Aubrière (La Membrolle-sur-Choisille)</name><time>0</time></trkpt><trkpt lat="47.438709" lon="0.630193"><ele>0.0</ele><name>Rocailles (La Membrolle-sur-Choisille)</name><time>0</time></trkpt><trkpt lat="47.434853" lon="0.630462"><ele>0.0</ele><name>Billonnière (La Membrolle-sur-Choisille)</name><time>0</time></trkpt><trkpt lat="47.435821" lon="0.633839"><ele>0.0</ele><name>Castel (La Membrolle-sur-Choisille)</name><time>0</time></trkpt><trkpt lat="47.436997" lon="0.638548"><ele>0.0</ele><name>Choisille (La Membrolle-sur-Choisille)</name><time>0</time></trkpt><trkpt lat="47.43588" lon="0.640958"><ele>0.0</ele><name>Val Choisille (La Membrolle-sur-Choisille)</name><time>0</time></trkpt></trkseg></trk></gpx>