<?xml version="1.0" encoding="UTF-8" standalone="yes"?>
<gpx xmlns="http://www.topografix.com/GPX/1/1" version="1.1" creator="FilBleuExporter">
	<metadata>Filbleu - Ligne N4</metadata>
	<wpt lon="0.682092" lat="47.367668">
		<ele>0.0</ele>
		<name>Michelin</name>
	</wpt>
	<wpt lon="0.705758" lat="47.381801">
		<ele>0.0</ele>
		<name>Jolivet</name>
	</wpt>
	<wpt lon="0.708495" lat="47.366036">
		<ele>0.0</ele>
		<name>Mozart</name>
	</wpt>
	<wpt lon="0.701769" lat="47.360588">
		<ele>0.0</ele>
		<name>J.P. Rameau</name>
	</wpt>
	<wpt lon="0.677264" lat="47.365547">
		<ele>0.0</ele>
		<name>Mérieux</name>
	</wpt>
	<wpt lon="0.669771" lat="47.393578">
		<ele>0.0</ele>
		<name>LP Bayet</name>
	</wpt>
	<wpt lon="0.677438" lat="47.370273">
		<ele>0.0</ele>
		<name>Jacques Monod</name>
	</wpt>
	<wpt lon="0.698461" lat="47.359650">
		<ele>0.0</ele>
		<name>Alouette</name>
	</wpt>
	<wpt lon="0.667968" lat="47.384283">
		<ele>0.0</ele>
		<name>Tonnellé</name>
	</wpt>
	<wpt lon="0.696077" lat="47.359578">
		<ele>0.0</ele>
		<name>De La Rochefoucauld</name>
	</wpt>
	<wpt lon="0.689703" lat="47.360709">
		<ele>0.0</ele>
		<name>Trobriand</name>
	</wpt>
	<wpt lon="0.710512" lat="47.378728">
		<ele>0.0</ele>
		<name>Raspail</name>
	</wpt>
	<wpt lon="0.687390" lat="47.393365">
		<ele>0.0</ele>
		<name>Emile Zola</name>
	</wpt>
	<wpt lon="0.680267" lat="47.379617">
		<ele>0.0</ele>
		<name>Strasbourg</name>
	</wpt>
	<wpt lon="0.705468" lat="47.364333">
		<ele>0.0</ele>
		<name>Ecole de Commerce</name>
	</wpt>
	<wpt lon="0.694038" lat="47.390016">
		<ele>0.0</ele>
		<name>Gare de Tours</name>
	</wpt>
	<wpt lon="0.692803" lat="47.390745">
		<ele>0.0</ele>
		<name>Gare Vinci</name>
	</wpt>
	<wpt lon="0.708190" lat="47.367804">
		<ele>0.0</ele>
		<name>D'Indy</name>
	</wpt>
	<wpt lon="0.675109" lat="47.394908">
		<ele>0.0</ele>
		<name>Dames Blanches</name>
	</wpt>
	<wpt lon="0.676885" lat="47.379980">
		<ele>0.0</ele>
		<name>Général Renault</name>
	</wpt>
	<wpt lon="0.683860" lat="47.395880">
		<ele>0.0</ele>
		<name>Constantine</name>
	</wpt>
	<wpt lon="0.685483" lat="47.363978">
		<ele>0.0</ele>
		<name>Polytech</name>
	</wpt>
	<wpt lon="0.671274" lat="47.379996">
		<ele>0.0</ele>
		<name>Maryse Bastié</name>
	</wpt>
	<wpt lon="0.685000" lat="47.393507">
		<ele>0.0</ele>
		<name>Marceau</name>
	</wpt>
	<wpt lon="0.678983" lat="47.376733">
		<ele>0.0</ele>
		<name>Erables</name>
	</wpt>
	<wpt lon="0.703192" lat="47.383110">
		<ele>0.0</ele>
		<name>Peupliers</name>
	</wpt>
	<wpt lon="0.718690" lat="47.369607">
		<ele>0.0</ele>
		<name>L'essart</name>
	</wpt>
	<wpt lon="0.703977" lat="47.360857">
		<ele>0.0</ele>
		<name>Lycée Grandmont</name>
	</wpt>
	<wpt lon="0.688112" lat="47.363759">
		<ele>0.0</ele>
		<name>Dassault</name>
	</wpt>
	<wpt lon="0.693770" lat="47.358916">
		<ele>0.0</ele>
		<name>Camus</name>
	</wpt>
	<wpt lon="0.692121" lat="47.359418">
		<ele>0.0</ele>
		<name>Camélias</name>
	</wpt>
	<wpt lon="0.708655" lat="47.379885">
		<ele>0.0</ele>
		<name>Champ Joli</name>
	</wpt>
	<wpt lon="0.697051" lat="47.387877">
		<ele>0.0</ele>
		<name>Champ Girault</name>
	</wpt>
	<wpt lon="0.683994" lat="47.366534">
		<ele>0.0</ele>
		<name>2 Lions</name>
	</wpt>
	<wpt lon="0.712571" lat="47.377461">
		<ele>0.0</ele>
		<name>Leccia</name>
	</wpt>
	<wpt lon="0.711146" lat="47.368781">
		<ele>0.0</ele>
		<name>Stendhal</name>
	</wpt>
	<wpt lon="0.719238" lat="47.376560">
		<ele>0.0</ele>
		<name>Parc des Expositions</name>
	</wpt>
	<wpt lon="0.668466" lat="47.381384">
		<ele>0.0</ele>
		<name>St François</name>
	</wpt>
	<wpt lon="0.680568" lat="47.395870">
		<ele>0.0</ele>
		<name>Faculté des Tanneurs</name>
	</wpt>
	<wpt lon="0.671853" lat="47.393644">
		<ele>0.0</ele>
		<name>Boyer</name>
	</wpt>
	<wpt lon="0.679247" lat="47.374087">
		<ele>0.0</ele>
		<name>St Sauveur</name>
	</wpt>
	<wpt lon="0.667163" lat="47.387477">
		<ele>0.0</ele>
		<name>Bretonneau</name>
	</wpt>
	<wpt lon="0.668012" lat="47.390208">
		<ele>0.0</ele>
		<name>Desmoulins</name>
	</wpt>
	<wpt lon="0.700534" lat="47.385179">
		<ele>0.0</ele>
		<name>Docteur Fournier</name>
	</wpt>
	<wpt lon="0.668075" lat="47.391781">
		<ele>0.0</ele>
		<name>Docteur Chaumier</name>
	</wpt>
</gpx>
