<?xml version="1.0" encoding="UTF-8" standalone="yes"?><gpx version="1.1" creator="FilBleu Scrapper"><metadata>Filbleu ligne 08B</metadata><trk><trkseg><trkpt lat="47.389505" lon="0.712303"><ele>0.0</ele><name>Peri</name><time>0</time></trkpt><trkpt lat="47.389103" lon="0.709957"><ele>0.0</ele><name>Audenet</name><time>0</time></trkpt><trkpt lat="47.387357" lon="0.7106"><ele>0.0</ele><name>Semard</name><time>0</time></trkpt><trkpt lat="47.387343" lon="0.714727"><ele>0.0</ele><name>Liberté</name><time>0</time></trkpt><trkpt lat="47.388205" lon="0.717178"><ele>0.0</ele><name>Ateliers</name><time>0</time></trkpt><trkpt lat="47.388973" lon="0.716433"><ele>0.0</ele><name>Grand Cour</name><time>0</time></trkpt><trkpt lat="47.38968" lon="0.717743"><ele>0.0</ele><name>Thorez</name><time>0</time></trkpt><trkpt lat="47.388384" lon="0.718988"><ele>0.0</ele><name>Estienne d'Orves</name><time>0</time></trkpt><trkpt lat="47.388367" lon="0.721671"><ele>0.0</ele><name>Cathelas</name><time>0</time></trkpt><trkpt lat="47.388424" lon="0.725425"><ele>0.0</ele><name>Molière</name><time>0</time></trkpt><trkpt lat="47.39007" lon="0.726356"><ele>0.0</ele><name>Jean Moulin</name><time>0</time></trkpt><trkpt lat="47.390932" lon="0.72947"><ele>0.0</ele><name>Viala</name><time>0</time></trkpt><trkpt lat="47.391864" lon="0.733721"><ele>0.0</ele><name>Déportés</name><time>0</time></trkpt><trkpt lat="47.392327" lon="0.737649"><ele>0.0</ele><name>Stade</name><time>0</time></trkpt><trkpt lat="47.393642" lon="0.738358"><ele>0.0</ele><name>Lenine</name><time>0</time></trkpt><trkpt lat="47.39473" lon="0.741876"><ele>0.0</ele><name>LP Nadaud</name><time>0</time></trkpt><trkpt lat="47.396983" lon="0.740259"><ele>0.0</ele><name>St Pierre Justices</name><time>0</time></trkpt></trkseg></trk></gpx>